Name,Typ,Adresse,Latitude,Longitude,Elevation,Entfernung_m
Cafè Exil,cafe,Adresse unbekannt,46.499354,11.355389,,119
Vögele,restaurant,"Via Johann Wolfgang Von Goethe - Johann-Wolfgang-Von-Goethe-Straße, 3, 39100, Bolzano - Bozen",46.499031,11.352501,,133
Forstbräu Central,restaurant,"Via Johann Wolfgang Von Goethe - Johann-Wolfgang-Von-Goethe-Straße, 6, 39100, Bolzano - Bozen",46.499073,11.352342,,138
Hopfen & Co.,restaurant,"Piazza delle Erbe - Obstplatz, 17, 39100, Bolzano - Bozen",46.499326,11.352572,,165
Batzenhäusl,restaurant,"Via Andreas Hofer - Andreas-Hofer-Straße, 30, 39100, Bolzano - Bozen",46.501360,11.357436,,176
Kaiserkron,restaurant,Piazza della Mostra - Musterplatz,46.498327,11.353444,,61
Caffé Mattei,cafe,"Piazza della Parrocchia - Pfarrplatz, 2, 39100, Bolzano - Bozen",46.497869,11.353471,,11
Gasthaus Fink,restaurant,"Via della Mostra - Mustergasse, 9, 39100, Bolzano - Bozen",46.498500,11.352915,,73
Sportler,cafe,Adresse unbekannt,46.499057,11.354516,,78
Despar,supermarket,Adresse unbekannt,46.500079,11.356945,,26
Despar,supermarket,"Via Museo - Museumstraße, 2, 39100, Bolzano - Bozen",46.499661,11.352403,,178
Caffè Maschin,cafe,Adresse unbekannt,46.498323,11.356894,,14
Nussbaumer,restaurant,Adresse unbekannt,46.500816,11.357014,,102
Weißes Rössl - Cavallino Bianco,restaurant,"Via dei Bottai - Bindergasse, 6",46.500922,11.356803,,111
Walther's,restaurant,"Piazza Walther - Waltherplatz, 6, 39100, Bolzano - Bozen",46.498326,11.355199,,9
Feichter,restaurant,Adresse unbekannt,46.498976,11.357028,,7
Pizzeria La Torcia,restaurant,"Via dei Conciapelli - Gerbergasse, 25, 39100, Bolzano - Bozen",46.498948,11.357497,,58
Il Tinello,restaurant,Adresse unbekannt,46.499088,11.358124,,129
Ritter,restaurant,Adresse unbekannt,46.499090,11.353790,,128
Paulaner Stuben,restaurant,"Via dei Portici - Laubengasse, 51, 39100, Bolzano - Bozen",46.499101,11.353505,,146
Stadt Hotel Città,cafe,"Piazza Walther - Walther-Platz, 21, 39100, Bolzano - Bozen",46.498684,11.354450,,44
Monika,cafe,Adresse unbekannt,46.498646,11.352476,,90
FranziskanerStuben,restaurant,Adresse unbekannt,46.500392,11.353579,,256
Casa al Torchio - Torgglhaus,restaurant,"Via Museo - Museumstraße, 2A, Bolzano - Bozen",46.499684,11.352236,,164
Marilyn,cafe,"Via della Posta - Postgasse, 8, 39100, Bolzano - Bozen",46.497932,11.352774,,10
Café Riesen,cafe,Adresse unbekannt,46.497940,11.352437,,12
Franziskaner,bakery,"Via Museo - Museumstraße, 10, 39100, Bolzano - Bozen",46.499729,11.351707,,126
Drinking_water,drinking_water,Adresse unbekannt,46.498533,11.354408,,36
Vögelino,cafe,Adresse unbekannt,46.498566,11.355210,,35
Dragone d'Oro,restaurant,Adresse unbekannt,46.500364,11.351603,,182
Bar/Restaurant/Konditorei Aida,restaurant,"Piazza Walther - Waltherplatz, 1a, 39100, Bolzano - Bozen",46.498709,11.355308,,49
PizzaPazza Kebab,restaurant,"Via Alto Adige - Südtiroler Straße, 24, 39100, Bolzano - Bozen",46.496659,11.354714,,33
Pizzeria Amade',restaurant,"Vicolo Ca' De Bezzi - Batzenhäuslgasse, 8, 39100",46.501661,11.357873,,228
pims,restaurant,"Piazzetta Maria Delago - Maria-Delago-Platz, 6, 39100",46.501501,11.356707,,175
Hackhofer,bakery,Adresse unbekannt,46.499664,11.359447,,284
Drinking_water,drinking_water,39100,46.499160,11.353233,,149
Despar,supermarket,Adresse unbekannt,46.498350,11.356190,,0
Humus,restaurant,Bolzano - Bozen,46.499154,11.353369,,150
Cafè Konditorei Pasticceria Klaus,bakery,"Piazzetta Maria Delago - Maria-Delago-Platz, 12, 39100, Bolzano - Bozen",46.501276,11.356595,,151
Tivoli,cafe,"Galleria Vintler - Vintler Galerie, 1, 39100, Bolzano - Bozen",46.500568,11.355553,,150
Pepper Lounge,cafe,"Piazza Domenicani - Dominikanerplatz, 38, 39100, Bolzano - Bozen",46.497948,11.352046,,20
Drinking_water,drinking_water,39190,46.499666,11.352589,,196
Drinking_water,drinking_water,Adresse unbekannt,46.499743,11.351823,,135
Drinking_water,drinking_water,39100,46.500163,11.354073,,210
Franziskaner,bakery,"Via dei Grappoli - Weintraubengasse, 44, 39100, Bolzano - Bozen",46.498735,11.356806,,10
forneria 38,restaurant,"Piazza delle Erbe - Obstplatz, 38, 39100, Bolzano - Bozen",46.500026,11.352672,,226
Oberon,restaurant,"Via Dr. Josef Streiter - Dr.-Josef-Streiter-Gasse, 7b",46.500148,11.356191,,65
Uva bianca - Weiße Traube,restaurant,"Via Museo - Museumstraße, 19",46.499242,11.351193,,50
Ristorante Pizzeria Teatro Nuovo,restaurant,Adresse unbekannt,46.495986,11.353708,,80
Hackhofer,bakery,Adresse unbekannt,46.499828,11.351055,,108
Drinking_water,drinking_water,39100,46.499168,11.357927,,108
Al Duomo,restaurant,"Via dell'Isarco - Eisackstraße, 3, 39100",46.496544,11.353592,,134
Italia & Amore,restaurant,Adresse unbekannt,46.498940,11.354126,,89
Eisenstecken,bakery,"Via Alto Adige - Südtiroler Straße, 4, 39100, Bolzano - Bozen",46.497427,11.354850,,9
Drinking_water,drinking_water,39100,46.501106,11.352407,,297
Bozner Brau,restaurant,"Piazza delle Erbe - Obstplatz, 17, 39100, Bolzano - Bozen",46.499330,11.352552,,165
Lemayr,bakery,"Via Johann Wolfgang Von Goethe - Johann-Wolfgang-Von-Goethe-Straße, 17, 39100, Bolzano - Bozen",46.498423,11.352450,,66
Grandi,bakery,"Via dei Bottai - Bindergasse, 18, 39100, Bolzano - Bozen",46.500513,11.356739,,65
Weinboutique Lisa,restaurant,"Via Dr. Josef Streiter - Dr.-Josef-Streiter-Gasse, 22a, 39100, Bolzano - Bozen",46.500195,11.354486,,202
Bogen Bistro & Apartments,restaurant,"Via Dr. Josef Streiter - Dr.-Josef-Streiter-Gasse, 31, 39100, Bolzano - Bozen",46.500101,11.354348,,195
Tirol Pizzeria,restaurant,"Via dei Francescani - Franziskanergasse, 50, 39100, Bolzano - Bozen",46.500275,11.353340,,259
Café Bistro Thaler arôme,cafe,"Via dei Portici - Laubengasse, 69, 39100, Bolzano - Bozen",46.499534,11.352756,,188
Lintner,cafe,"Via Leonardo da Vinci - Leonardo-da-Vinci-Straße, 8a, 39100, Bolzano - Bozen",46.499031,11.350576,,13
Drinking_water,drinking_water,39100,46.498361,11.356352,,5
Naturalis,supermarket,Adresse unbekannt,46.498285,11.356527,,3
Bento Sushi,restaurant,"Via dei Grappoli - Weintraubengasse, 21, 39100, Bolzano - Bozen",46.498829,11.356980,,0
Drinking_water,drinking_water,Adresse unbekannt,46.500190,11.355635,,126
Nuovo Antalya Pizza Kebab,restaurant,"Via della Rena - Raingasse, 3/d, 39100, Bolzano - Bozen",46.498264,11.356476,,3
Da Cesare,restaurant,"Via Dr. Julius Perathoner - Dr.-Julius-Perathoner-Straße, 15, 39100, Bolzano - Bozen",46.496804,11.355556,,59
Bar Miami,cafe,"Via Dr. Julius Perathoner - Dr.-Julius-Perathoner-Straße, 25, 39100, Bolzano - Bozen",46.496857,11.355773,,82
Dips - French Tacos & Salads,restaurant,"Via Dr. Julius Perathoner - Dr.-Julius-Perathoner-Straße, 29, 39100, Bolzano - Bozen",46.496910,11.355801,,85
El Cafetero,cafe,"Via Alto Adige - Südtiroler Straße, 36, 39100, Bolzano - Bozen",46.496446,11.354860,,25
Cafe,cafe,Adresse unbekannt,46.496756,11.355191,,18
Bamboo,restaurant,"Via dell'Isarco - Eisackstraße, 3b, 39100, Bolzano - Bozen",46.496722,11.353582,,114
Koi,restaurant,"Via Museo - Museumstraße, 29c, 39100, Bolzano - Bozen",46.499833,11.350591,,102
BiTi Bar,cafe,"Via Giuseppe Garibaldi - Giuseppe-Garibaldi-Straße, 36, 39100, Bolzano - Bozen",46.495392,11.355748,,49
Relax Cafe,cafe,"Via Alto Adige - Südtiroler Straße, 39100, Bolzano - Bozen",46.497122,11.355182,,16
Römerkeller,restaurant,"Via dei Grappoli - Weintraubengasse, 9b, 39100, Bolzano - Bozen",46.499135,11.356988,,6
La Piazza,restaurant,Adresse unbekannt,46.498176,11.355202,,6
GUL Indiana Pakistana Sapori D'Oriente,restaurant,"Via Dr. Josef Streiter - Dr.-Josef-Streiter-Gasse, 2, 39100, Bolzano - Bozen",46.500208,11.356607,,35
Café Monaco,cafe,"Piazza Domenicani - Dominikanerplatz, 12, 39100, Bolzano - Bozen",46.497064,11.352149,,78
Trattoria Toscana,restaurant,"Via dei Cappuccini - Kapuzinergasse, 8a, 39100, Bolzano - Bozen",46.496553,11.352216,,123
Drinking_water,drinking_water,Adresse unbekannt,46.500378,11.352896,,270
A.R.M.A.,restaurant,"Via Renon - Rittner Straße, 1",46.497340,11.359083,,268
Drinking_water,drinking_water,Adresse unbekannt,46.497325,11.353388,,49
Tirol,restaurant,Adresse unbekannt,46.500287,11.353335,,261
Anita,restaurant,"Piazza delle Erbe - Obstplatz, 5a",46.500133,11.353241,,253
Franziskaner,bakery,Adresse unbekannt,46.500526,11.353669,,265
ZenZero,restaurant,"Via Museo - Museumstraße, 15, 39100, Bolzano - Bozen",46.499464,11.351454,,86
Caffé Epulario,cafe,"Via della Rena - Raingasse, 1, 39100, Bolzano - Bozen",46.498401,11.356733,,1
Ristorante Speckstube,restaurant,Adresse unbekannt,46.498320,11.352330,,55
Tree Brasserie,restaurant,"Via Piave - Piavestraße, 15, 39100, Bolzano - Bozen",46.500200,11.357481,,85
Caffè Bavaria,cafe,"Galleria Stella - Sterngalerie, 8, 39100, Bolzano - Bozen",46.499976,11.356066,,74
Bar Italico,cafe,Adresse unbekannt,46.496687,11.358198,,245
Cafe unter den Lauben,cafe,"Via dei Portici - Laubengasse, Bolzano - Bozen",46.499589,11.354549,,135
Top Ramen,restaurant,Adresse unbekannt,46.497491,11.355217,,31
PimpGarage,bicycle,"Via dei Conciapelli - Gerbergasse, 67b, 39100, Bolzano - Bozen",46.499516,11.358445,,172
Trattoria Filo d'olio,restaurant,"Vicolo della Parrocchia - Pfarrgasse, 2a, 39100, Bolzano - Bozen",46.498870,11.353552,,122
Panella,cafe,"Piazza della Stazione - Bahnhofsplatz, 12, 39100, Bolzano - Bozen",46.496684,11.358758,,286
CAPITOL Caffè - Bar,cafe,"Via Dr. Josef Streiter - Dr.-Josef-Streiter-Gasse, 8, 39100, Bolzano - Bozen",46.500280,11.356051,,86
Solala - Ristorante asiatico,restaurant,"Via Alto Adige - Südtiroler Straße, 3/7, 39100, Bolzano - Bozen",46.497392,11.355104,,16
MPREIS,supermarket,"Via dei Grappoli - Weintraubengasse, 56, 39100, Bolzano - Bozen",46.498611,11.356735,,14
Cooper,cafe,Adresse unbekannt,46.499878,11.356924,,18
Bäckerei Franziskaner,bakery,Adresse unbekannt,46.501129,11.356769,,134
Drinking_water,drinking_water,39100,46.501214,11.356374,,149
Drinking_water,drinking_water,Adresse unbekannt,46.496875,11.355405,,42
Drinking_water,drinking_water,Adresse unbekannt,46.501689,11.355337,,250
Capsula coffee & tea,cafe,Adresse unbekannt,46.501643,11.356761,,190
In Viaggio,restaurant,Adresse unbekannt,46.500087,11.357514,,84
ENJOEY,cafe,Adresse unbekannt,46.499717,11.358386,,172
Waag,cafe,Adresse unbekannt,46.499514,11.355204,,131
Insushi,restaurant,Adresse unbekannt,46.498309,11.354046,,53
Corte,restaurant,Adresse unbekannt,46.498114,11.353815,,37
META,restaurant,Adresse unbekannt,46.498236,11.354261,,36
Coop,supermarket,"Piazza Walther - Waltherplatz, 13/7, Bolzano - Bozen",46.498230,11.354197,,40
Restaurant,restaurant,Adresse unbekannt,46.499097,11.353689,,137
37,restaurant,Adresse unbekannt,46.499312,11.354370,,110
Drinking_water,drinking_water,Adresse unbekannt,46.495881,11.353737,,70
Hackhofer,bakery,"Via dei Grappoli - Weintraubengasse, 6a",46.499086,11.356822,,6
Trattoria Filo d‘Olio,restaurant,Adresse unbekannt,46.498930,11.353519,,128
Drinking_water,drinking_water,Adresse unbekannt,46.497352,11.354607,,37
Drinking_water,drinking_water,Adresse unbekannt,46.498325,11.354760,,7
Pur,supermarket,Adresse unbekannt,46.498503,11.353761,,80
Loacker Moccaria,cafe,"Piazza Walther - Waltherplatz, 11, 39100, Bolzano - Bozen",46.498041,11.354304,,17
hurtig,bakery,"Via Dr. Josef Streiter - Dr.-Josef-Streiter-Gasse, 2, 39100, Bolzano - Bozen",46.500182,11.356699,,29
Kolpinghaus Bozen,restaurant,"Largo Adolph Kolping - Adolph-Kolping-Straße, 3, 39100, Bolzano - Bozen",46.497501,11.350474,,81
Caffe Thaler,cafe,"Via Dante - Dantestraße, 17, 39100",46.495888,11.349768,,97
Bar Stuzzicheria Casa di Gio',restaurant,Adresse unbekannt,46.493022,11.354563,,219
Drinking_water,drinking_water,Adresse unbekannt,46.495261,11.349987,,25
Pizza Call,restaurant,"Via Guglielmo Marconi - Guglielmo-Marconi-Straße, 21, 39100, Bozen",46.495009,11.350533,,10
Electric bike Center,bicycle,"Piazza Giuseppe Verdi - Giuseppe-Verdi-Platz, 7, 39100, Bolzano - Bozen",46.494671,11.353762,,58
Bar-Bistro Pizzeria Safran,restaurant,"Via Guglielmo Marconi - Guglielmo-Marconi-Straße, 1a, 39100, Bolzano - Bozen",46.495277,11.352456,,20
Sushi Il Milione,restaurant,"Via Guglielmo Marconi - Guglielmo-Marconi-Straße, 13b, 39100, Bolzano - Bozen",46.495075,11.351143,,16
Drinking_water,drinking_water,Adresse unbekannt,46.493329,11.351468,,211
Drinking_water,drinking_water,Adresse unbekannt,46.492827,11.352643,,288
Caffè Benetti,cafe,"Via Napoli - Neapelstraße, 9, 39100",46.493024,11.343250,,186
Drinking_water,drinking_water,Adresse unbekannt,46.498226,11.346340,,98
Café Londra,cafe,"Via Dante - Dantestraße, 1, 39100, Bolzano - Bozen",46.497466,11.349395,,167
Café Museion,restaurant,"Piazza Piero Siena - Piero-Siena-Platz, 3, 39100",46.497396,11.348150,,167
La Veneziana,restaurant,"Viale Venezia - Venediger Straße, 59a, 39100, Bolzano - Bozen",46.495235,11.345697,,57
Ristorante indiano Maharaja,restaurant,"Viale Druso - Drususallee, 6, 39100",46.494818,11.346032,,11
Eurac Cafe,cafe,"Viale Druso - Drususallee, 1a, 39100, Bolzano - Bozen",46.493985,11.347520,,83
Degustibus,cafe,Adresse unbekannt,46.498181,11.347897,,77
Pizzeria Tortuga,restaurant,"Piazzetta Questore Renato Mazzoni - Polizeidirektor-Renato-Mazzoni-Platz, 9, 39100, Bolzano - Bozen",46.495171,11.347029,,48
Turci,bicycle,"Via Firenze - Florenzstraße, 30, 39100, Bolzano - Bozen",46.493099,11.342771,,180
Dom ristorante al bocciodromo,restaurant,Adresse unbekannt,46.493228,11.346206,,164
Bocciodromo,cafe,"Viale Trieste - Triester Straße, 17, 39100, Bolzano - Bozen",46.493336,11.346319,,152
Fujiya - China Town,restaurant,"Via Cassa di Risparmio - Sparkassenstraße, 20a, 39100, Bolzano - Bozen",46.498770,11.348972,,29
Drinking_water,drinking_water,Adresse unbekannt,46.496690,11.347754,,212
Caffè Gelateria Eisberg,cafe,"Via Firenze - Florenzstraße, 13, 39100, Bolzano - Bozen",46.493056,11.343132,,183
Drinking_water,drinking_water,Adresse unbekannt,46.498800,11.347385,,15
Premiere Bio pasticceria e pane,bakery,Adresse unbekannt,46.493721,11.343136,,109
DOCTOR BIKE,bicycle,Adresse unbekannt,46.494465,11.343235,,26
Maradona,restaurant,Adresse unbekannt,46.495449,11.345676,,81
Zio Alfonso,restaurant,"Viale Druso - Drususallee, 50, 39100, Bolzano - Bozen",46.495453,11.335645,,17
Eurospar,supermarket,Adresse unbekannt,46.493296,11.340098,,189
Pizzeria Al Cantuccio,restaurant,"Via della Visitazione - Mariaheimweg, 4e, 39100, Bolzano - Bozen",46.496226,11.337387,,112
Marechiaro,restaurant,Adresse unbekannt,46.493982,11.341536,,91
La stazione della bicicletta,bicycle,"Via della Visitazione - Mariaheimweg, 16b, 39100, Bolzano - Bozen",46.495721,11.336067,,46
Diamound's,restaurant,"Via della Visitazione - Mariaheimweg, 4/g, 39100, Bolzano - Bozen",46.496346,11.337624,,128
Togiva,cafe,Adresse unbekannt,46.492972,11.341286,,205
Susaki,restaurant,"Via Roma - Romstraße, 2a, 39100, Bolzano - Bozen",46.494670,11.340165,,36
Cafe,cafe,"Via Michael Gaismair - Michael-Gaismair-Straße, 23, 39100, Bolzano - Bozen",46.496175,11.335941,,97
Cafe,cafe,"Via Michael Gaismair - Michael-Gaismair-Straße, 25, 39100, Bolzano - Bozen",46.496076,11.335990,,86
Gioia Cafe,cafe,"Via Roen - Roenstraße, 11, 39100, Bolzano - Bozen",46.497824,11.337339,,288
La Lanterna,restaurant,"Via Rovigo - Rovigostraße, 14, 39100, Bolzano - Bozen",46.494579,11.335793,,79
Buga Ramen,restaurant,"Viale Druso - Drususallee, 91, 39100, Bolzano - Bozen",46.495129,11.335847,,18
Cafe,cafe,Adresse unbekannt,46.497671,11.340268,,296
Cafe,cafe,Adresse unbekannt,46.496196,11.340334,,133
Drinking_water,drinking_water,Adresse unbekannt,46.495372,11.339875,,38
Drinking_water,drinking_water,Adresse unbekannt,46.497798,11.339242,,299
Drinking_water,drinking_water,Adresse unbekannt,46.496527,11.340511,,172
Pizzeria da Gigi,restaurant,Adresse unbekannt,46.493778,11.341348,,115
Cafè Petit Château,cafe,Adresse unbekannt,46.496816,11.339903,,198
Drinking_water,drinking_water,Adresse unbekannt,46.492631,11.318308,,189
Drinking_water,drinking_water,Adresse unbekannt,46.492395,11.317396,,209
Drinking_water,drinking_water,Adresse unbekannt,46.492492,11.311561,,138
Poli,supermarket,Adresse unbekannt,46.491590,11.314803,,265
Pizzeria Metro',restaurant,"Viale Druso - Drususallee, 339, 39100",46.494181,11.318630,,19
Pizzeria Lo Zodiaco,restaurant,Adresse unbekannt,46.494318,11.310322,,78
Drinking_water,drinking_water,Adresse unbekannt,46.492661,11.317345,,179
Futuro Bio,supermarket,"Viale Giacomo Puccini - Giacomo-Puccini-Allee, 39100, Bolzano - Bozen",46.492958,11.313155,,109
Bar Tom,cafe,"Viale Giacomo Puccini - Giacomo-Puccini-Allee, 30, 39100, Bolzano - Bozen",46.492602,11.313413,,149
Drinking_water,drinking_water,Adresse unbekannt,46.493475,11.310826,,9
Bike Wellness,bicycle,Adresse unbekannt,46.492868,11.313200,,119
Aldi,supermarket,39100,46.494258,11.314441,,15
Drinking_water,drinking_water,Adresse unbekannt,46.491683,11.312305,,246
Tankstelle - Bar - Distributore,cafe,"Via Castel Firmiano - Sigmundskroner Straße, 9, 39100, Bolzano - Bozen",46.491515,11.306930,,30
Mendelhof,restaurant,"Via Castel Firmiano, 22, 39100, Bolzano - Bozen",46.485495,11.299765,,14
Bike Cafe,cafe,Adresse unbekannt,46.485801,11.303641,,291
Bar Krone,cafe,"Via Castel Firmiano - Sigmundskroner Straße, 33, 39100, Bolzano - Bozen",46.485408,11.300090,,20
Drinking_water,drinking_water,Adresse unbekannt,46.508730,11.264524,,4
Zum Hirschen,restaurant,Adresse unbekannt,46.556185,11.219890,,148
Drinking_water,drinking_water,Adresse unbekannt,46.607935,11.181144,,105
km 23,cafe,39014,46.608459,11.182244,,27
Drinking_water,drinking_water,Adresse unbekannt,46.608355,11.182230,,20
Meraner Inn,restaurant,88,46.633285,11.177912,,212
All'Orsetto,restaurant,"Enrico-Fermi-Straße - Via Enrico Fermi, 10, 39012, Meran - Merano",46.636235,11.174199,,140
Flarer,bicycle,Adresse unbekannt,46.647322,11.176707,,24
DInuoVO,restaurant,"Romstraße - Via Roma, 113, 39012, Meran - Merano",46.659936,11.165630,,26
Gutes von Gestern,bakery,244,46.658102,11.166459,,6
Drinking_water,drinking_water,Adresse unbekannt,46.660153,11.165576,,23
Grub'n Brunnen,drinking_water,Adresse unbekannt,46.657438,11.167834,,36
Ressmair,restaurant,"Romstraße - Via Roma, 166, 39012, Meran - Merano",46.662032,11.163910,,7
La Bruschetta,restaurant,"Romstraße - Via Roma, 144, 39012, Meran - Merano",46.662529,11.163101,,87
Drinking_water,drinking_water,Adresse unbekannt,46.663766,11.167869,,91
Pizzeria HEINZ,restaurant,"Romstraße - Via Roma, 140",46.662594,11.162899,,111
Despar,supermarket,"via Roma, 63",46.663732,11.162089,,249
Drinking_water,drinking_water,Adresse unbekannt,46.661757,11.164392,,3
Drinking_water,drinking_water,Adresse unbekannt,46.661948,11.161335,,281
Bar Monopol,cafe,Adresse unbekannt,46.661590,11.162287,,187
Drinking_water,drinking_water,Adresse unbekannt,46.660995,11.162008,,246
Bar Cavour,cafe,Adresse unbekannt,46.668213,11.165886,,274
Drinking_water,drinking_water,Adresse unbekannt,46.666341,11.169830,,8
Drinking_water,drinking_water,Adresse unbekannt,46.671081,11.167677,,208
Caffè Wandelhalle,cafe,"Winterpromenade - Passeggiata D'Inverno, 25, 39012, Meran - Merano",46.669508,11.166948,,166
Biokiste,supermarket,Adresse unbekannt,46.669445,11.170871,,180
Cafe Knödelglück,cafe,Adresse unbekannt,46.672625,11.168753,,242
Drinking_water,drinking_water,Adresse unbekannt,46.673246,11.170783,,119
Felsenkeller,restaurant,Adresse unbekannt,46.672991,11.169017,,234
Henkerhaus,restaurant,Adresse unbekannt,46.670830,11.168239,,140
Drinking_water,drinking_water,Adresse unbekannt,46.669590,11.170891,,168
Drinking_water,drinking_water,Adresse unbekannt,46.670790,11.168473,,116
Drinking_water,drinking_water,Adresse unbekannt,46.669649,11.169270,,10
Drinking_water,drinking_water,Adresse unbekannt,46.669303,11.166785,,175
Mega Pizza,restaurant,Adresse unbekannt,46.669629,11.170164,,106
Drinking_water,drinking_water,Adresse unbekannt,46.671245,11.173315,,210
Drinking_water,drinking_water,Adresse unbekannt,46.702322,11.180392,,38
Oberwirtskeller,restaurant,"Kirchweg - Via Chiesa, 39010, Riffian - Rifiano",46.702604,11.180069,,72
Löwenwirt,restaurant,"Jaufenstraße - Via Passo Giovo, 39010, Riffian - Rifiano",46.701933,11.180704,,12
Pizzeria + Eisdiele Pircher,restaurant,Adresse unbekannt,46.701353,11.177201,,239
Drinking_water,drinking_water,Adresse unbekannt,46.701458,11.180384,,12
My little bakery,bakery,Adresse unbekannt,46.701462,11.180033,,14
MPREIS,supermarket,"Jaufenstraße - Via Giovo, 61, 39010, Riffian - Rifiano",46.705385,11.184336,,20
Pension Restaurant Weinberg,restaurant,"Kirchweg - Via Chiesa, 20, 39010, Riffian - Rifiano",46.706595,11.183309,,184
Luferkeller,restaurant,Adresse unbekannt,46.710404,11.189332,,199
Drinking_water,drinking_water,Adresse unbekannt,46.707650,11.189521,,236
Saltauser Hof,restaurant,Adresse unbekannt,46.729358,11.200739,,23
Drinking_water,drinking_water,Adresse unbekannt,46.729373,11.200538,,7
Restaurant,restaurant,Adresse unbekannt,46.728214,11.202088,,219
Pizzeria,restaurant,Adresse unbekannt,46.729895,11.200817,,13
Drinking_water,drinking_water,Adresse unbekannt,46.730220,11.200444,,23
Drinking_water,drinking_water,Adresse unbekannt,46.730057,11.200485,,21
Restaurant Quellenhof,restaurant,Adresse unbekannt,46.746925,11.206784,,22
Despar,supermarket,Adresse unbekannt,46.779588,11.225412,,27
Drinking_water,drinking_water,Adresse unbekannt,46.784648,11.227787,,153
Psairer Beck,bakery,28,46.784077,11.227605,,140
C+C Supermarket Passeier,supermarket,Adresse unbekannt,46.784781,11.227692,,169
Gasthaus Lamm,restaurant,Adresse unbekannt,46.784611,11.227669,,162
Gasthof Jager Hans,restaurant,Adresse unbekannt,46.780640,11.226279,,50
Drinking_water,drinking_water,Adresse unbekannt,46.784832,11.227722,,169
Drinking_water,drinking_water,Adresse unbekannt,46.784946,11.227545,,192
Drinking_water,drinking_water,Adresse unbekannt,46.784032,11.227523,,144
Cafe - Restaurant Pfandleralm,restaurant,Adresse unbekannt,46.785136,11.229395,,31
Pizzeria&Pub Forelle,restaurant,Adresse unbekannt,46.785858,11.230563,,19
Grillstube Königsrainer,restaurant,Adresse unbekannt,46.785502,11.228818,,107
Eis-Cafe Margareth,cafe,Adresse unbekannt,46.785315,11.228417,,133
Drinking_water,drinking_water,Adresse unbekannt,46.784548,11.230798,,134
Cafe Bistro Platzl,cafe,Adresse unbekannt,46.785135,11.227748,,184
Bike Shop,bicycle,"Holzlände, 87, 39010, St. Martin in Passeier - San Martino in Passiria",46.792104,11.232355,,183
Frischmarkt Raffl,supermarket,Adresse unbekannt,46.790335,11.232220,,160
Drinking_water,drinking_water,Adresse unbekannt,46.802217,11.237197,,160
Sandwirt,restaurant,Adresse unbekannt,46.801457,11.238749,,29
Drinking_water,drinking_water,Adresse unbekannt,46.800692,11.237392,,72
Drinking_water,drinking_water,Adresse unbekannt,46.801644,11.238892,,28
Fischerverein Passeier,cafe,Adresse unbekannt,46.800493,11.237513,,52
Klotz,restaurant,Adresse unbekannt,46.803030,11.241334,,34
Frickhof,restaurant,"Passeirer Straße - Via Passiria, 31, 39015",46.811527,11.246858,,8
Brühwirt,restaurant,"Kirchweg - Via Chiesa, 31, 39015, St. Leonhard in Passeier - San Leonardo in Passiria",46.810331,11.245885,,58
Bäckerei Ploner,bakery,"Passeirer Straße - Via Passiria, 39015, St. Leonhard in Passeier - San Leonardo in Passiria",46.811220,11.246306,,0
Sonnenhof,restaurant,Adresse unbekannt,46.809434,11.248318,,242
Wiesenhof,restaurant,Adresse unbekannt,46.808169,11.244955,,50
Despar,supermarket,Adresse unbekannt,46.811134,11.246057,,11
Drinking_water,drinking_water,Adresse unbekannt,46.811971,11.246026,,83
Drinking_water,drinking_water,Adresse unbekannt,46.811998,11.247302,,7
Bio- + Reformhaus Hofer,supermarket,Adresse unbekannt,46.811881,11.246076,,73
Koblerbrot - Bäckerei + Cafe,bakery,"Kohlstatt - Via dei Carbonai, 39015, St. Leonhard in Passeier - San Leonardo in Passiria",46.811930,11.245551,,109
Cafe - Restaurant Tirolerhof,restaurant,"Kohlstatt - Via dei Carbonai, 7, 39015, St. Leonhard in Passeier - San Leonardo in Passiria",46.811993,11.246629,,47
Dorf Cafe,cafe,Adresse unbekannt,46.812435,11.246314,,22
Drinking_water,drinking_water,Adresse unbekannt,46.811905,11.247022,,18
Felseneck,restaurant,Adresse unbekannt,46.812298,11.247200,,17
Eisdiele Pichler,cafe,Adresse unbekannt,46.812650,11.244056,,74
Gasthof Peter,restaurant,Adresse unbekannt,46.813567,11.247009,,123
Stroblhof,restaurant,Adresse unbekannt,46.811681,11.247296,,18
Zentral,restaurant,Adresse unbekannt,46.811941,11.247443,,21
Restaurant Theis,restaurant,Adresse unbekannt,46.812298,11.247047,,4
Martl,restaurant,"Passeirerstraße, 31",46.811633,11.247042,,9
Passeirer Weinstube,restaurant,"Mooser Straße - Via Moso, 26, 39015, St. Leonhard in Passeier - San Leonardo in Passiria",46.816128,11.242063,,236
Sportarena Passeier,restaurant,Adresse unbekannt,46.815905,11.241032,,271
Gasthof Schlossberg,restaurant,Adresse unbekannt,46.819786,11.258206,,12
Unterer Obereggerhof,restaurant,Adresse unbekannt,46.825113,11.270987,,70
Gasthof Alpenrose,restaurant,Adresse unbekannt,46.826200,11.287882,,12
Drinking_water,drinking_water,Adresse unbekannt,46.826444,11.307530,,7
Innerwalten,restaurant,"39015, St. Leonhard in Passeier - San Leonardo in Passiria",46.826415,11.307695,,10
Jägerhof,restaurant,Adresse unbekannt,46.827295,11.302337,,26
Drinking_water,drinking_water,Adresse unbekannt,46.825192,11.309247,,117
Jaufenalm,restaurant,"39015, St. Leonhard in Passeier - San Leonardo in Passiria",46.835816,11.311634,,86
Enzianhütte,restaurant,Adresse unbekannt,46.838486,11.302524,,14
Edelweisshütte,cafe,Adresse unbekannt,46.839254,11.320834,,14
Bakery,bakery,Adresse unbekannt,46.880799,11.404626,,103
A.nett,cafe,Adresse unbekannt,46.880399,11.404366,,73
Drinking_water,drinking_water,Adresse unbekannt,46.881842,11.405956,,106
Derby Club,restaurant,"Penserjochstraße - Via Passo Pennes, 1, 39049, Sterzing - Vipiteno",46.887291,11.431620,,213
Bar by Kristi,cafe,"Lentweg, 11, 39049, Sterzing",46.890201,11.434677,,24
Walcher,bakery,Adresse unbekannt,46.891896,11.427154,,176
Drinking_water,drinking_water,Adresse unbekannt,46.890845,11.433714,,38
Hotel Hubertushof,restaurant,"Marconistraße - Via Marconi, 19, 39049, Sterzing - Vipiteno",46.893482,11.431412,,153
Drinking_water,drinking_water,Adresse unbekannt,46.891293,11.428889,,100
Pizza Viva,restaurant,"Michael-Gaismair-Siedlung - Rione Michael Gaismair, 2, 39049, Sterzing - Vipiteno",46.891162,11.429239,,76
Walcher,bakery,Adresse unbekannt,46.896263,11.431223,,61
Lilie Restaurant,restaurant,"Neustadt - Via Città Nuova, 49, 39049",46.896840,11.432059,,32
Lamm,restaurant,Adresse unbekannt,46.897949,11.431447,,17
Goldenes Kreuz,restaurant,Adresse unbekannt,46.896968,11.431808,,10
Bar Stöckl,cafe,Adresse unbekannt,46.896676,11.431959,,44
Café Rose,cafe,Adresse unbekannt,46.896560,11.432808,,5
Despar - Knollenberger,supermarket,Adresse unbekannt,46.895281,11.432367,,18
Café Frick,cafe,Adresse unbekannt,46.896199,11.431192,,60
Pardeller,bakery,"Neustadt - Città Nuova, 26b, 39049, Sterzing - Vipiteno",46.897480,11.431599,,19
Drinking_water,drinking_water,Adresse unbekannt,46.897070,11.431936,,6
Poli Supermarket,supermarket,Adresse unbekannt,46.894212,11.430139,,96
Häusler,bakery,"Neustadt - Città Nuova, 11, 39049, Sterzing - Vipiteno",46.898136,11.431662,,30
Gut & Gerne - Regionale Spezialitäten,supermarket,"Neustadt - Città Nuova, 22, 39049, Sterzing - Vipiteno",46.897793,11.431509,,8
Am Tor,restaurant,"Gänsbacherstraße - Via Gänsbacher, 3, 39049, Sterzing - Vipiteno",46.896159,11.432262,,53
Kleine Flamme,restaurant,"Neustadt - Città Nuova, 31, 39049, Sterzing - Vipiteno",46.897460,11.431859,,5
Kolping,restaurant,Adresse unbekannt,46.897643,11.431072,,59
Gut & Gerne,supermarket,"Neustadt - Via Città Nuova, 32a",46.897150,11.431724,,8
Café Rossi,cafe,"Neustadt - Via Città Nuova, 27",46.897640,11.431816,,9
Kolping Haus Bar Restaurant Pizzaria,restaurant,Adresse unbekannt,46.897644,11.431429,,26
Drinking_water,drinking_water,Adresse unbekannt,46.896259,11.432058,,78
Pizzeria Cafe Seidner,restaurant,Sterzing - Vipiteno,46.897954,11.432809,,2
Sterzingerhof,restaurant,"Geizkoflerstraße - Via Geizkofler, 15, 39049, Sterzing - Vipiteno",46.898272,11.433551,,36
Rad Sport Freund,bicycle,"Dantestraße - Via Dante, 3, 39049, Sterzing - Vipiteno",46.897941,11.433440,,18
Arbor,restaurant,Adresse unbekannt,46.898313,11.433419,,28
Schwemme,cafe,Adresse unbekannt,46.898940,11.431036,,134
EuroSpin,supermarket,"Stadtplatz - Piazza Città, 39049",46.899144,11.433352,,114
Sole,restaurant,Adresse unbekannt,46.898233,11.433815,,60
Pardeller,bakery,"Altstadt - Città Vecchia, 19, 39049, Sterzing - Vipiteno",46.899815,11.430469,,249
Gschwentner,supermarket,Adresse unbekannt,46.900000,11.430561,,263
Konditorei Prenn,cafe,Adresse unbekannt,46.899882,11.430463,,256
Ristorante Pizzeria Sport Bar,restaurant,"Geizkoflerstraße - Via Geizkofler, 8, 39049, Sterzing - Vipiteno",46.898588,11.432336,,69
Zur Traube,restaurant,Adresse unbekannt,46.899624,11.430849,,212
Drinking_water,drinking_water,Adresse unbekannt,46.898029,11.432576,,4
Stadtbrunnen,drinking_water,Adresse unbekannt,46.899316,11.431769,,156
Gasthof Sterzingerhof,restaurant,"Geizkoflerstraße - Via Geizkofler, 15, 39049, Sterzing - Vipiteno",46.898238,11.433484,,27
Cafe Stadttheater,cafe,Adresse unbekannt,46.897426,11.433915,,90
Gasthof Klammer,restaurant,Adresse unbekannt,46.893010,11.435525,,207
Thumburgerhof,restaurant,Adresse unbekannt,46.882038,11.437389,,159
Drinking_water,drinking_water,Adresse unbekannt,46.874493,11.444997,,6
Gasthaus Egg,restaurant,"Egg, 8, 39040, Freienfeld - Campo di Trens",46.846447,11.485755,,106
Gasthaus zum Stern,restaurant,Adresse unbekannt,46.780620,11.414321,,32
Murrerhof,restaurant,Adresse unbekannt,46.770350,11.372414,,142
Restaurant Feldrand,restaurant,"Weissenbach, 55, 39058, Sarntal - Sarentino",46.746122,11.358738,,36
Hotel Restaurant Pizzeria Alpenrose,restaurant,"28, 39058, Sarntal - Sarentino",46.733373,11.346823,,24
Drinking_water,drinking_water,Adresse unbekannt,46.671932,11.362263,,123
Weisses Rössl,restaurant,"6, 39058, Sarntal - Sarentino",46.665740,11.365174,,25
Stern,restaurant,"12, 39058, Sarntal - Sarentino",46.666305,11.365789,,43
Conad,supermarket,Astfeld - Campolasta,46.665595,11.364376,,43
Rott,supermarket,Adresse unbekannt,46.642982,11.357267,,221
Bierhitt,cafe,Adresse unbekannt,46.642976,11.357410,,206
Milchbar,cafe,28,46.643612,11.357200,,248
Zancanella,bakery,Adresse unbekannt,46.643763,11.357168,,258
Braunwirt,restaurant,Adresse unbekannt,46.642709,11.356782,,264
Höllriegl,restaurant,Adresse unbekannt,46.643110,11.357616,,188
Drinking_water,drinking_water,Adresse unbekannt,46.642846,11.356819,,265
Café Mair,cafe,Adresse unbekannt,46.644227,11.357096,,288
Gadthof Post Albergo,restaurant,Adresse unbekannt,46.643533,11.356921,,275
Sarner Forellenzucht - Troticoltura Sarentino,restaurant,Adresse unbekannt,46.627816,11.359938,,196
Trojer,supermarket,Adresse unbekannt,46.613976,11.374146,,17
Halbweg,restaurant,Adresse unbekannt,46.575657,11.376197,,46
Rastbichler,restaurant,Adresse unbekannt,46.509624,11.347750,,211
Ahoi! Minigolf,restaurant,"Lungo Talvera Bolzano - Bozner Wassermauer, 22, 39100, Bolzano - Bozen",46.509315,11.350873,,134
Drinking_water,drinking_water,Adresse unbekannt,46.509580,11.351055,,146
Drinking_water,drinking_water,Adresse unbekannt,46.502643,11.348985,,191
Pippo Brunnen - Fontana Parco Pippo,drinking_water,Adresse unbekannt,46.502945,11.345814,,135
Drinking_water,drinking_water,Adresse unbekannt,46.507394,11.347847,,165
Bar 2000,cafe,"Parco Francesco Petrarca - Francesco-Petrarca-Park, 10, 39100, Bolzano - Bozen",46.503204,11.346048,,123
Drinking_water,drinking_water,Adresse unbekannt,46.504079,11.348915,,93
Drinking_water,drinking_water,Adresse unbekannt,46.507103,11.350175,,95
Drinking_water,drinking_water,Adresse unbekannt,46.503104,11.349204,,181
Drinking_water,drinking_water,Adresse unbekannt,46.503952,11.348824,,93
Drinking_water,drinking_water,Adresse unbekannt,46.503871,11.349362,,147
Drinking_water,drinking_water,Adresse unbekannt,46.503927,11.349472,,154
Eurospar,supermarket,"Via Museo - Museumstraße, 39, 39100, Bolzano - Bozen",46.499864,11.350001,,102
Ristorante Pizzeria Gambrinus,restaurant,Adresse unbekannt,46.501260,11.344385,,231
Caffetteria 4 Novembre,cafe,Adresse unbekannt,46.501552,11.344046,,273
Drinking_water,drinking_water,Adresse unbekannt,46.501520,11.349751,,283
Drinking_water,drinking_water,Adresse unbekannt,46.500652,11.344205,,245
Bistro 12,restaurant,Adresse unbekannt,46.500293,11.349182,,140
Tosca 2,cafe,"Via Antonio Rosmini - Antonio-Rosmini-Straße, 91",46.499647,11.347733,,76
Insushi,restaurant,"Piazza della Vittoria - Siegesplatz, 20, 39100, Bolzano - Bozen",46.500127,11.344289,,228
Drinking_water,drinking_water,39190,46.501173,11.345407,,117
Bar Luce,cafe,"Piazza della Vittoria - Siegesplatz, 1, 39100, Bolzano - Bozen",46.499874,11.345821,,58
Bar Elena,cafe,Adresse unbekannt,46.499352,11.345472,,96
Drinking_water,drinking_water,Adresse unbekannt,46.499973,11.349451,,109
Drinking_water,drinking_water,Adresse unbekannt,46.500252,11.348101,,139
Windspitz,peak,N/A,46.685798,11.303636,2390.000000,4450
Tatschspitze - Montaccio di Pennes,peak,N/A,46.808819,11.482874,2526.000000,3751
Niedereck - Dosso Basso,peak,N/A,46.804851,11.466350,2304.000000,2294
Onsberg - Monte Ones,peak,N/A,46.827125,11.505808,1952.000000,3102
Rosskopf - Monte Cavallo,peak,N/A,46.914452,11.384067,2189.000000,4083
Merltennen,viewpoint,N/A,46.525336,11.384187,,2472
Mutkopf,peak,N/A,46.710770,11.137869,1664.000000,4386
,viewpoint,N/A,46.817588,11.247296,,22
Matteo Thun'scher Gucker,viewpoint,N/A,46.658925,11.186443,,1457
Skywalk Trauttmansdorff,viewpoint,N/A,46.661091,11.187173,,1651
Gänsekragenspitze - Punta di Campo,peak,N/A,46.819602,11.435652,2322.000000,243
Wilder-Mann-Bühel - Col dell'uomo,peak,N/A,46.442318,11.299787,643.000000,4729
,viewpoint,N/A,46.690011,11.185913,,1159
,viewpoint,N/A,46.865673,11.472645,,556
,viewpoint,N/A,46.557664,11.191915,,1968
Jaufenspitz - Cima Giovo,peak,N/A,46.834273,11.334409,2481.000000,1229
Mutspitz,peak,N/A,46.779610,11.178606,2265.000000,3959
Matatzspitz,peak,N/A,46.786198,11.192039,2178.000000,3167
Großer Mittager - Monte Catino,peak,N/A,46.684233,11.310195,2422.000000,3885
,viewpoint,N/A,46.503536,11.228977,,2756
Mutnellspitz - Muttanella,peak,N/A,46.779325,11.476459,2654.000000,4726
Sarner Scharte - Monte Forcella Sarentina,peak,N/A,46.650051,11.408421,2458.000000,4908
Sarner Weißhorn - Corno Bianco,peak,N/A,46.802381,11.396196,2705.000000,2803
Seespitz - Cima del Lago,peak,N/A,46.804228,11.341644,2430.000000,3995
Unterberg - Monte di Sotto,peak,N/A,46.785627,11.316721,2712.000000,4538
Seeblspitz - Punta della Sciabola,peak,N/A,46.760667,11.336957,2347.000000,2861
Sam,peak,N/A,46.672659,11.329342,2137.000000,2760
Schönjöchl - Cima di Giogobello,peak,N/A,46.762408,11.435416,2308.000000,2873
Poschberg,peak,N/A,46.767206,11.442077,2278.000000,2714
Teufentaler Spitz,peak,N/A,46.771233,11.448296,2341.000000,2808
Paulwand - Croda di Paolo,peak,N/A,46.786114,11.462629,2278.000000,3016
Nebelseespitz - Cima Nebbia,peak,N/A,46.783043,11.469437,2516.000000,3844
Kallmanspitz - Cima Colma,peak,N/A,46.723041,11.383444,2398.000000,3679
Hochplatzen,peak,N/A,46.798453,11.480177,2351.000000,3972
Astenberg - Monte Laste,peak,N/A,46.809503,11.455791,2367.000000,1039
Röthenspitz - Punta Rossa,peak,N/A,46.818095,11.416314,2441.000000,1233
Etschenspitz - Monte Eccio,peak,N/A,46.827862,11.405886,2430.000000,2798
Hohe Ferschl - Monte Versilio,peak,N/A,46.816271,11.382006,2365.000000,4544
Hoferspitz - Monte Cavo,peak,N/A,46.823301,11.378191,2379.000000,4532
Rastl - Monte Pausa,peak,N/A,46.830126,11.377351,2249.000000,3815
Gostjöchl - Giogo di Costa,peak,N/A,46.864272,11.382698,1799.000000,918
Durraspitz - Monte Dura,peak,N/A,46.852794,11.418431,1969.000000,3358
Hochrastl - Pausa Alta,peak,N/A,46.846516,11.422784,2057.000000,2529
Mandlseitejoch - Monte Mandola,peak,N/A,46.852233,11.434254,2185.000000,2344
Weiße Wand - Croda Bianca,peak,N/A,46.844355,11.456275,2205.000000,641
Grupper Jöchl - Monte Capo,peak,N/A,46.866333,11.425032,1797.000000,2287
Wurzer Alpenspitz,peak,N/A,46.878164,11.295288,2220.000000,4447
,viewpoint,N/A,46.491630,11.353899,,382
,viewpoint,N/A,46.711084,11.182338,,458
,viewpoint,N/A,46.683103,11.200458,,2843
Saxendlespitz - Piccola Cima del Sasso,peak,N/A,46.847673,11.279864,2186.000000,2327
,viewpoint,N/A,46.857104,11.503260,,1721
Burgblick,viewpoint,N/A,46.691337,11.151101,,2432
Hohe Kreuzspitze - Punta Altacroce,peak,N/A,46.854920,11.214419,2743.000000,4855
Gissmanner Nock - Colle della Madonnina,peak,N/A,46.605037,11.418940,1924.000000,4157
,viewpoint,N/A,46.767671,11.250549,,2990
Rifflspitz - Monte Sega,peak,N/A,46.769456,11.258818,2060.000000,3637
,viewpoint,N/A,46.520579,11.384638,,2704
Mitterbichl - Col di Mezzo,peak,N/A,46.822113,11.493777,2080.000000,2880
Saxner - Sassonero,peak,N/A,46.842285,11.266025,2358.000000,1895
Johanniskofel - Monte San Giovanni,peak,N/A,46.549718,11.368779,658.000000,302
,viewpoint,N/A,46.602845,11.201980,,1777
Fleckner,peak,N/A,46.841044,11.269962,2331.000000,1658
Glaitner Hochjoch - Monte Fumaiolo,peak,N/A,46.841585,11.246632,2389.000000,2273
,viewpoint,N/A,46.682185,11.199524,,2767
,viewpoint,N/A,46.740921,11.230812,,2639
,viewpoint,N/A,46.727548,11.227087,,2940
,viewpoint,N/A,46.506202,11.331787,,1231
,viewpoint,N/A,46.670131,11.160714,,853
,viewpoint,N/A,46.526441,11.255666,,1125
,viewpoint,N/A,46.524845,11.253968,,873
,viewpoint,N/A,46.673298,11.171728,,74
,viewpoint,N/A,46.505138,11.301590,,1562
,viewpoint,N/A,46.480495,11.305810,,851
Gruner Wänd',viewpoint,N/A,46.532552,11.262631,,2121
Zinseler - Cima di Stilves,peak,N/A,46.841015,11.442720,2422.000000,832
Hochscheibe - Cima Capra,peak,N/A,46.776993,11.460075,2560.000000,3361
,viewpoint,N/A,46.521814,11.275218,,1836
,viewpoint,N/A,46.504048,11.362689,,801
Rotwand,peak,N/A,46.468229,11.363907,1386.000000,3107
,viewpoint,N/A,46.819396,11.443468,,54
,viewpoint,N/A,46.596163,11.158588,,2921
,viewpoint,N/A,46.598050,11.160521,,2632
,viewpoint,N/A,46.599221,11.159924,,2632
Beimsteinknott,peak,N/A,46.606407,11.229723,1291.000000,4712
,viewpoint,N/A,46.671646,11.167389,,269
Tschaufer Nock - Il Giovo,peak,N/A,46.556396,11.254850,1280.000000,2958
,viewpoint,N/A,46.756611,11.194304,,1358
,viewpoint,N/A,46.471042,11.353859,,2655
,viewpoint,N/A,46.471172,11.354155,,2638
Flaner Jöchl,peak,N/A,46.926558,11.409897,1936.000000,3992
,viewpoint,N/A,46.572157,11.174332,,2130
Hoher Follmer - Dosso Nero,peak,N/A,46.587403,11.351655,1526.000000,2962
,viewpoint,N/A,46.507431,11.357858,,834
Essenbergspitz - Monte Essa,peak,N/A,46.694004,11.311368,2316.000000,3290
Ochsenrast - Monte Piano,peak,N/A,46.703172,11.315423,2137.000000,2611
Dorfer Nock - Monte Salve,peak,N/A,46.616733,11.357487,1501.000000,1368
Gamser - Cima dei Camosci,peak,N/A,46.633768,11.410267,2155.000000,4142
Hühnerspiel - Cima Specola,peak,N/A,46.833966,11.434535,2373.000000,634
Schönjöchl - Monte Giogobello,peak,N/A,46.839368,11.378748,2017.000000,3061
Mittagspitz - Punta di Mezzodì,peak,N/A,46.840353,11.359109,2055.000000,2160
Hochplattspitz - Lasta Alta,peak,N/A,46.828262,11.349823,2545.000000,2864
Salcherspitz - Cima Salceto,peak,N/A,46.840468,11.402777,2109.000000,3947
Titschen - Monte Pozza,peak,N/A,46.463669,11.379289,1616.000000,4362
Ochsner,peak,N/A,46.798386,11.407351,2394.000000,1974
Steinwand,peak,N/A,46.800721,11.409432,2335.000000,1656
Gartlspitz - Cima Corte,peak,N/A,46.807226,11.399798,2586.000000,2490
Bock,peak,N/A,46.808012,11.388775,2369.000000,3590
Alpenspitz - Cima dell'Alpe,peak,N/A,46.797190,11.349482,2479.000000,3513
Hochwart - Guardia Alta,peak,N/A,46.791632,11.318340,2748.000000,3918
Geißscheibenspitz - Monte Casa,peak,N/A,46.812249,11.362736,2545.000000,4516
Grumer Eck - Monte Tondo,peak,N/A,46.512839,11.377386,1110.000000,2253
Jöchlsberg - Monte del Giogo,peak,N/A,46.618396,11.392626,1564.000000,1801
Wolfsbühel - Monte Lupo,peak,N/A,46.607778,11.213371,1147.000000,3151
Hühnerspiel - Monte Rosso,peak,N/A,46.786752,11.380802,2287.000000,1501
Mudatsch - Mudaccio,peak,N/A,46.794292,11.393404,2582.000000,2076
,viewpoint,N/A,46.616371,11.196818,,1345
Belvedere,viewpoint,N/A,46.682293,11.155495,,1776
Pfitschkopf,peak,N/A,46.727395,11.154717,2120.000000,3955
,viewpoint,N/A,46.700685,11.175191,,344
,viewpoint,N/A,46.511934,11.291781,,2099
Hörtenbergkreuz - Croce del Monte Tondo,viewpoint,N/A,46.511628,11.371663,,1659
Kleine Kreuzspitze - Piccola Punta di Montecroce,peak,N/A,46.850165,11.230836,2513.000000,3615
,viewpoint,N/A,46.524078,11.384606,,2559
,viewpoint,N/A,46.603386,11.200683,,1661
Grummen - Monte Tondo,peak,N/A,46.536462,11.276414,1235.000000,3228
Sattelspitz - Monte Sella,peak,N/A,46.744889,11.168038,2137.000000,3622
Fladiger Berg,peak,N/A,46.858306,11.236148,2276.000000,4291
Hochjoch - Monte della Pozza,peak,N/A,46.803682,11.308456,2490.000000,2485
Zetticher,peak,N/A,46.809475,11.311857,2214.000000,1842
Tagewalder,peak,N/A,46.809220,11.303040,2332.000000,1965
Braunicher - Punta di Tramontana,peak,N/A,46.810586,11.289012,2106.000000,1743
Jagerspitzl - Cima dei Cacciatori,peak,N/A,46.878331,11.524628,2035.000000,4954
Zwölfernöckl - Cima delle Dodici,peak,N/A,46.887842,11.507500,2048.000000,4428
Mareiter Stein - Sasso di Mareta,peak,N/A,46.876952,11.316132,2192.000000,3480
Gschließegg - Monte di Casaclusa,peak,N/A,46.889583,11.477272,1667.000000,3196
,viewpoint,N/A,46.792197,11.243400,,1065
Karnspitze - Cima di Quaire,peak,N/A,46.752508,11.419364,2412.000000,3130
Gentersbergspitze - Monte Ganda,peak,N/A,46.742301,11.402932,2411.000000,3744
Hurler - Monte Corlo,peak,N/A,46.734419,11.395583,2405.000000,4067
Leiterspitz,peak,N/A,46.707395,11.379382,2375.000000,3752
Radelspitz - Cima Rodella,peak,N/A,46.713418,11.381302,2422.000000,4223
Grubenkopf - Monte delle Fosse,peak,N/A,46.752537,11.316271,2604.000000,3928
Schafberg - Monte delle Pecore,peak,N/A,46.746624,11.319163,2356.000000,3275
Leiterspitze,peak,N/A,46.729689,11.303392,2340.000000,3831
,viewpoint,N/A,46.683218,11.197297,,2499
,viewpoint,N/A,46.847102,11.290493,,1335
,viewpoint,N/A,46.852044,11.286964,,2006
Rotensteinkogel - Pietrarossa,peak,N/A,46.621700,11.214559,1464.000000,3312
Hochsulfen - Monte Sulvo,peak,N/A,46.640972,11.204741,1345.000000,3075
Grumser Bühal - Col di Grones,peak,N/A,46.659892,11.197722,841.000000,2606
Altenberg - Montalto,peak,N/A,46.517280,11.317795,1223.000000,2544
Samberg - Monte Sommo,peak,N/A,46.588139,11.411811,1785.000000,3153
,viewpoint,N/A,46.811591,11.241222,,313
,viewpoint,N/A,46.675078,11.162023,,975
,viewpoint,N/A,46.658776,11.187012,,1505
,viewpoint,N/A,46.518391,11.222644,,2455
,viewpoint,N/A,46.694657,11.201970,,2201
,viewpoint,N/A,46.684110,11.200426,,2816
Kesselberg,peak,N/A,46.691158,11.303504,2290.000000,4218
,viewpoint,N/A,46.502213,11.374438,,1971
,viewpoint,N/A,46.509311,11.336789,,1349
,viewpoint,N/A,46.673247,11.171677,,72
Vorbichl - Il Colle,peak,N/A,46.558521,11.186818,678.000000,2226
,viewpoint,N/A,46.481048,11.302398,,537
,viewpoint,N/A,46.565494,11.233545,,1722
,viewpoint,N/A,46.509046,11.365619,,1177
,viewpoint,N/A,46.490460,11.350579,,511
,viewpoint,N/A,46.490219,11.350630,,538
,viewpoint,N/A,46.490303,11.350262,,525
,viewpoint,N/A,46.515705,11.330270,,2258
,viewpoint,N/A,46.518147,11.313755,,2666
,viewpoint,N/A,46.513752,11.332422,,1972
,viewpoint,N/A,46.471060,11.354023,,2651
,viewpoint,N/A,46.482964,11.361929,,1509
Rossruggen,peak,N/A,46.792526,11.193996,2000.000000,3315
Nieder,peak,N/A,46.782413,11.451757,2346.000000,2275
Zwölfernock - Dosso delle Dodici,peak,N/A,46.892057,11.468571,1522.000000,2697
,viewpoint,N/A,46.505458,11.363007,,925
,viewpoint,N/A,46.516794,11.317893,,2490
Ötsch - Cima d'Accia,peak,N/A,46.803657,11.371467,2592.000000,3513
Harlinger Jochspitze - Cima Artengo,peak,N/A,46.786249,11.277855,2407.000000,4252
Kral-Zäundl,viewpoint,N/A,46.876799,11.490668,,2411
,viewpoint,N/A,46.538869,11.257420,,2014
Gemolbichl,peak,N/A,46.553984,11.189597,658.000000,2451
,viewpoint,N/A,46.493732,11.242002,,2689
,viewpoint,N/A,46.494418,11.241719,,2638
,viewpoint,N/A,46.506482,11.359119,,773
,viewpoint,N/A,46.478669,11.305226,,940
,viewpoint,N/A,46.516061,11.366556,,1026
,viewpoint,N/A,46.525115,11.254324,,920
Noaferbichl,peak,N/A,46.510272,11.298084,828.000000,2249
,viewpoint,N/A,46.891968,11.455556,,1560
,viewpoint,N/A,46.500484,11.376245,,2144
,viewpoint,N/A,46.501405,11.372501,,1744
,viewpoint,N/A,46.675916,11.164932,,718
Sinicher Kopf,viewpoint,N/A,46.634711,11.184971,,850
,viewpoint,N/A,46.633557,11.184235,,706
,viewpoint,N/A,46.634640,11.183875,,753
,viewpoint,N/A,46.493045,11.240609,,2831
Rosswagen - Cavallo,peak,N/A,46.585262,11.424829,1737.000000,4627
Settelkopf - Colle Sella,peak,N/A,46.537382,11.352575,1059.000000,1225
,viewpoint,N/A,46.673477,11.198754,,2860
,viewpoint,N/A,46.710632,11.212570,,2364
Virgiliusbichl,peak,N/A,46.497833,11.231653,858.000000,3010
Bozner Eck,peak,N/A,46.479968,11.267158,389.000000,2146
Grummenbichl - Col Grummen,peak,N/A,46.531661,11.341499,1075.000000,2179
Bichl - Colle,peak,N/A,46.548024,11.345200,1268.000000,2216
Plattenspitze - Punta delle Laste,peak,N/A,46.790529,11.274575,2345.000000,3732
Schonbühel - Belcolle,peak,N/A,46.768197,11.240730,1282.000000,2066
,viewpoint,N/A,46.691821,11.187453,,1275
,viewpoint,N/A,46.697752,11.190027,,1028
,viewpoint,N/A,46.684505,11.159119,,1432
,viewpoint,N/A,46.671601,11.167657,,242
,viewpoint,N/A,46.676380,11.166700,,515
,viewpoint,N/A,46.530485,11.340736,,2206
,viewpoint,N/A,46.711606,11.184393,,358
