{
  "bbox_used": [
    43.268800000000006,
    10.989184999999999,
    43.528872,
    11.380955
  ],
  "elements": [
    {
      "id": 26863235,
      "latitude": 42.3874679,
      "longitude": 11.1691326,
      "type": "peak",
      "name": "Il Telegrafo",
      "elevation": 635.0,
      "tags": {
        "ele": "635",
        "importance": "regional",
        "name": "Il Telegrafo",
        "natural": "peak",
        "wikidata": "Q31628209"
      }
    },
    {
      "id": 330521066,
      "latitude": 37.071718,
      "longitude": 11.047018,
      "type": "viewpoint",
      "name": "الرأس الطيب",
      "elevation": null,
      "tags": {
        "alt_name:ar": "الوطن القبلي;رأس الدار;كاب بون",
        "name": "الرأس الطيب",
        "name:ar": "الرأس الطيب",
        "name:de": "Kap Bon",
        "name:es": "Cabo Bon",
        "name:fr": "Cap Bon",
        "name:it": "Capo Bon",
        "name:pt": "Cabo Bon",
        "name:ro": "Capul Bon",
        "tourism": "viewpoint"
      }
    },
    {
      "id": 330525318,
      "latitude": 37.0715829,
      "longitude": 11.0412997,
      "type": "viewpoint",
      "name": null,
      "elevation": null,
      "tags": {
        "tourism": "viewpoint"
      }
    },
    {
      "id": 330533674,
      "latitude": 37.0537694,
      "longitude": 11.0221086,
      "type": "viewpoint",
      "name": null,
      "elevation": null,
      "tags": {
        "tourism": "viewpoint"
      }
    },
    {
      "id": 385659464,
      "latitude": 42.6383868,
      "longitude": 11.0914835,
      "type": "viewpoint",
      "name": null,
      "elevation": null,
      "tags": {
        "tourism": "viewpoint"
      }
    },
    {
      "id": 385659600,
      "latitude": 42.6369804,
      "longitude": 11.089305,
      "type": "viewpoint",
      "name": null,
      "elevation": null,
      "tags": {
        "direction": "290",
        "tourism": "viewpoint"
      }
    },
    {
      "id": 385659646,
      "latitude": 42.6389746,
      "longitude": 11.0880907,
      "type": "viewpoint",
      "name": null,
      "elevation": null,
      "tags": {
        "direction": "290",
        "tourism": "viewpoint"
      }
    },
    {
      "id": 462244409,
      "latitude": 43.3385312,
      "longitude": 11.1321498,
      "type": "peak",
      "name": "Monte Vasone",
      "elevation": 397.0,
      "tags": {
        "ele": "397",
        "name": "Monte Vasone",
        "natural": "peak",
        "wikidata": "Q31611662"
      }
    },
    {
      "id": 470618808,
      "latitude": 22.9833333,
      "longitude": 11.3666667,
      "type": "peak",
      "name": "Pic d'Ahoh",
      "elevation": null,
      "tags": {
        "name": "Pic d'Ahoh",
        "natural": "peak",
        "source": "geonames.org",
        "wikidata": "Q31792731"
      }
    },
    {
      "id": 470619612,
      "latitude": 22.4,
      "longitude": 11.3333333,
      "type": "peak",
      "name": "Mont Bouboulé",
      "elevation": null,
      "tags": {
        "name": "Mont Bouboulé",
        "natural": "peak",
        "source": "geonames.org"
      }
    },
    {
      "id": 470619621,
      "latitude": 22.3166667,
      "longitude": 11.2,
      "type": "peak",
      "name": "Mont Tibio Kida",
      "elevation": null,
      "tags": {
        "name": "Mont Tibio Kida",
        "natural": "peak",
        "source": "geonames.org",
        "wikidata": "Q31791828"
      }
    },
    {
      "id": 470725729,
      "latitude": 16.7666667,
      "longitude": 11.2166667,
      "type": "peak",
      "name": "Ehi Sountellane Yalanga",
      "elevation": null,
      "tags": {
        "name": "Ehi Sountellane Yalanga",
        "natural": "peak",
        "source": "geonames.org",
        "wikidata": "Q31791950"
      }
    },
    {
      "id": 470725730,
      "latitude": 16.9666667,
      "longitude": 11.2333333,
      "type": "peak",
      "name": "Gossolorom Yalanga",
      "elevation": null,
      "tags": {
        "name": "Gossolorom Yalanga",
        "natural": "peak",
        "source": "geonames.org",
        "wikidata": "Q31792222"
      }
    },
    {
      "id": 501250240,
      "latitude": 7.183333,
      "longitude": 11.0,
      "type": "peak",
      "name": "Jinaji Hill",
      "elevation": null,
      "tags": {
        "GNS:dsg_code": "PK",
        "GNS:dsg_string": "peak",
        "GNS:id": "-2013775",
        "is_in:country": "Nigeria",
        "name": "Jinaji Hill",
        "natural": "peak",
        "source": "GNS",
        "wikidata": "Q49752557"
      }
    },
    {
      "id": 530094870,
      "latitude": 43.4681546,
      "longitude": 11.0411511,
      "type": "viewpoint",
      "name": "La Rocca",
      "elevation": null,
      "tags": {
        "name": "La Rocca",
        "tourism": "viewpoint",
        "wheelchair": "no"
      }
    },
    {
      "id": 530094920,
      "latitude": 43.4669729,
      "longitude": 11.0444009,
      "type": "viewpoint",
      "name": null,
      "elevation": null,
      "tags": {
        "tourism": "viewpoint"
      }
    },
    {
      "id": 540660268,
      "latitude": 43.12622,
      "longitude": 11.0041894,
      "type": "peak",
      "name": "Poggio di Montieri",
      "elevation": 1050.0,
      "tags": {
        "ele": "1050",
        "importance": "regional",
        "name": "Poggio di Montieri",
        "natural": "peak",
        "wikidata": "Q3907055",
        "wikipedia": "it:Poggio di Montieri"
      }
    },
    {
      "id": 540660273,
      "latitude": 43.0523807,
      "longitude": 11.0121601,
      "type": "peak",
      "name": "Poggio Cerro Balestro",
      "elevation": 616.0,
      "tags": {
        "ele": "616",
        "name": "Poggio Cerro Balestro",
        "natural": "peak"
      }
    },
    {
      "id": 612578878,
      "latitude": 42.3960034,
      "longitude": 11.1038875,
      "type": "viewpoint",
      "name": "Capo d'Uomo",
      "elevation": null,
      "tags": {
        "name": "Capo d'Uomo",
        "tourism": "viewpoint"
      }
    },
    {
      "id": 621236604,
      "latitude": 43.0257073,
      "longitude": 11.0782628,
      "type": "viewpoint",
      "name": null,
      "elevation": null,
      "tags": {
        "tourism": "viewpoint"
      }
    },
    {
      "id": 621236605,
      "latitude": 43.0253718,
      "longitude": 11.0781582,
      "type": "viewpoint",
      "name": null,
      "elevation": null,
      "tags": {
        "tourism": "viewpoint"
      }
    },
    {
      "id": 626637566,
      "latitude": 42.6391797,
      "longitude": 11.0916879,
      "type": "peak",
      "name": "Poggio Lecci",
      "elevation": 414.0,
      "tags": {
        "ele": "414",
        "importance": "regional",
        "name": "Poggio Lecci",
        "natural": "peak"
      }
    },
    {
      "id": 848697342,
      "latitude": 42.600535,
      "longitude": 11.3636235,
      "type": "viewpoint",
      "name": "Viale dei Cipressi",
      "elevation": null,
      "tags": {
        "name": "Viale dei Cipressi",
        "name:en": "Alley of Cypresses",
        "tourism": "viewpoint"
      }
    },
    {
      "id": 957845402,
      "latitude": 43.4180506,
      "longitude": 11.3445614,
      "type": "viewpoint",
      "name": null,
      "elevation": null,
      "tags": {
        "tourism": "viewpoint"
      }
    },
    {
      "id": 1085629800,
      "latitude": 43.5139299,
      "longitude": 11.0960098,
      "type": "viewpoint",
      "name": null,
      "elevation": null,
      "tags": {
        "tourism": "viewpoint"
      }
    },
    {
      "id": 1152862707,
      "latitude": 37.056231,
      "longitude": 11.061251,
      "type": "peak",
      "name": "جبل مرقب الطرق",
      "elevation": null,
      "tags": {
        "name": "جبل مرقب الطرق",
        "name:ar": "جبل مرقب الطرق",
        "name:fr": "Djebel Mergueb El Trok",
        "natural": "peak"
      }
    },
    {
      "id": 1152863082,
      "latitude": 37.0717596,
      "longitude": 11.0464822,
      "type": "peak",
      "name": "جبل سيدي أبو الأبيض",
      "elevation": null,
      "tags": {
        "alt_name:ar": "جبل سيدي بو الأبيض;جبل الأبيض",
        "name": "جبل سيدي أبو الأبيض",
        "name:ar": "جبل سيدي أبو الأبيض",
        "name:de": "Dschabal Sayyidi Abu Al-Abyad",
        "name:en": "Jabal Sayyidi Abu Al-Abyad",
        "name:fr": "Djebel Sidi Abiod",
        "natural": "peak"
      }
    },
    {
      "id": 1152864668,
      "latitude": 37.0631909,
      "longitude": 11.0149004,
      "type": "peak",
      "name": "جبل العش",
      "elevation": null,
      "tags": {
        "name": "جبل العش",
        "name:ar": "جبل العش",
        "name:fr": "Djebel El Ach",
        "natural": "peak"
      }
    },
    {
      "id": 1152864799,
      "latitude": 37.0610852,
      "longitude": 11.0256263,
      "type": "peak",
      "name": "جبل الطرطوشة",
      "elevation": null,
      "tags": {
        "name": "جبل الطرطوشة",
        "name:ar": "جبل الطرطوشة",
        "name:fr": "Djebel El Tartoucha",
        "natural": "peak"
      }
    },
    {
      "id": 1152864852,
      "latitude": 37.043889,
      "longitude": 11.051944,
      "type": "peak",
      "name": "جبل دهرة جابر",
      "elevation": null,
      "tags": {
        "name": "جبل دهرة جابر",
        "name:ar": "جبل دهرة جابر",
        "name:fr": "Dahret Jeber",
        "natural": "peak",
        "wikidata": "Q30444759"
      }
    },
    {
      "id": 1152865071,
      "latitude": 37.050812,
      "longitude": 11.046937,
      "type": "peak",
      "name": "Chefeur Bou Zaak",
      "elevation": null,
      "tags": {
        "name": "Chefeur Bou Zaak",
        "natural": "peak",
        "wikidata": "Q30444723"
      }
    },
    {
      "id": 1152865562,
      "latitude": 37.054444,
      "longitude": 11.039722,
      "type": "peak",
      "name": "جبل بوكتانة",
      "elevation": null,
      "tags": {
        "name": "جبل بوكتانة",
        "name:ar": "جبل بوكتانة",
        "name:fr": "Djebel Bou Ketena",
        "natural": "peak"
      }
    },
    {
      "id": 1207313701,
      "latitude": 43.4803684,
      "longitude": 11.0131747,
      "type": "viewpoint",
      "name": null,
      "elevation": null,
      "tags": {
        "tourism": "viewpoint"
      }
    },
    {
      "id": 1216000224,
      "latitude": 42.8636991,
      "longitude": 11.1795963,
      "type": "peak",
      "name": "Poggio Ulivestraio",
      "elevation": 254.0,
      "tags": {
        "ele": "254",
        "name": "Poggio Ulivestraio",
        "natural": "peak"
      }
    },
    {
      "id": 1216000462,
      "latitude": 42.8583734,
      "longitude": 11.1758086,
      "type": "peak",
      "name": "Poggio Montecalvello",
      "elevation": 135.0,
      "tags": {
        "ele": "135",
        "name": "Poggio Montecalvello",
        "natural": "peak"
      }
    },
    {
      "id": 1216000524,
      "latitude": 42.852192,
      "longitude": 11.1949322,
      "type": "peak",
      "name": "Poggio del Cornone",
      "elevation": 331.0,
      "tags": {
        "ele": "331",
        "name": "Poggio del Cornone",
        "natural": "peak"
      }
    },
    {
      "id": 1216000627,
      "latitude": 42.8489957,
      "longitude": 11.1933999,
      "type": "peak",
      "name": "Monte Rosaio",
      "elevation": 262.0,
      "tags": {
        "ele": "262",
        "name": "Monte Rosaio",
        "natural": "peak"
      }
    },
    {
      "id": 1216000711,
      "latitude": 42.8552989,
      "longitude": 11.1964477,
      "type": "peak",
      "name": "Poggio Montaio",
      "elevation": 321.0,
      "tags": {
        "ele": "321",
        "name": "Poggio Montaio",
        "natural": "peak"
      }
    },
    {
      "id": 1217098751,
      "latitude": 43.3173604,
      "longitude": 11.3298332,
      "type": "viewpoint",
      "name": null,
      "elevation": null,
      "tags": {
        "tourism": "viewpoint"
      }
    },
    {
      "id": 1217115556,
      "latitude": 43.4219988,
      "longitude": 11.1188275,
      "type": "viewpoint",
      "name": null,
      "elevation": null,
      "tags": {
        "tourism": "viewpoint"
      }
    },
    {
      "id": 1240702633,
      "latitude": 43.4520622,
      "longitude": 11.0011367,
      "type": "peak",
      "name": "Poggio del Comune",
      "elevation": 602.0,
      "tags": {
        "ele": "602",
        "name": "Poggio del Comune",
        "natural": "peak"
      }
    },
    {
      "id": 1240702682,
      "latitude": 43.4614514,
      "longitude": 10.9984918,
      "type": "peak",
      "name": "Poggio del Comune",
      "elevation": 625.0,
      "tags": {
        "ele": "625",
        "name": "Poggio del Comune",
        "natural": "peak",
        "wikidata": "Q31623669"
      }
    },
    {
      "id": 1269472529,
      "latitude": 42.7101089,
      "longitude": 11.1999293,
      "type": "peak",
      "name": "Poggio Campore",
      "elevation": 203.0,
      "tags": {
        "ele": "203",
        "name": "Poggio Campore",
        "natural": "peak"
      }
    },
    {
      "id": 1283015102,
      "latitude": 43.3186664,
      "longitude": 11.1601746,
      "type": "viewpoint",
      "name": null,
      "elevation": null,
      "tags": {
        "tourism": "viewpoint"
      }
    },
    {
      "id": 1288758188,
      "latitude": 43.2185932,
      "longitude": 11.2130097,
      "type": "peak",
      "name": "Poggio Siena Vecchia",
      "elevation": 528.0,
      "tags": {
        "ele": "528",
        "name": "Poggio Siena Vecchia",
        "natural": "peak"
      }
    },
    {
      "id": 1288764005,
      "latitude": 43.3597584,
      "longitude": 11.2057085,
      "type": "peak",
      "name": "Montemaggio",
      "elevation": 672.0,
      "tags": {
        "ele": "672",
        "importance": "regional",
        "long_name": "Monte Maggio",
        "name": "Montemaggio",
        "natural": "peak",
        "wikidata": "Q63523664",
        "wikipedia": "it:Montemaggio"
      }
    },
    {
      "id": 1289557687,
      "latitude": 43.2651481,
      "longitude": 11.2056333,
      "type": "peak",
      "name": "Poggio della Pigna",
      "elevation": 490.0,
      "tags": {
        "ele": "490",
        "name": "Poggio della Pigna",
        "natural": "peak"
      }
    },
    {
      "id": 1321506569,
      "latitude": 43.2135582,
      "longitude": 11.2142411,
      "type": "peak",
      "name": "Poggio Alberino",
      "elevation": 513.5,
      "tags": {
        "ele": "513.5",
        "name": "Poggio Alberino",
        "natural": "peak"
      }
    },
    {
      "id": 1321506571,
      "latitude": 43.2284606,
      "longitude": 11.2106665,
      "type": "peak",
      "name": "Canton del Prugnolo",
      "elevation": 512.0,
      "tags": {
        "ele": "512",
        "name": "Canton del Prugnolo",
        "natural": "peak"
      }
    },
    {
      "id": 1321506572,
      "latitude": 43.2381534,
      "longitude": 11.2056797,
      "type": "peak",
      "name": "Monte Acuto",
      "elevation": 453.0,
      "tags": {
        "ele": "453",
        "name": "Monte Acuto",
        "natural": "peak"
      }
    },
    {
      "id": 1331083366,
      "latitude": 43.2727294,
      "longitude": 11.2089945,
      "type": "peak",
      "name": "Poggio Le Piagge",
      "elevation": 483.0,
      "tags": {
        "ele": "483",
        "name": "Poggio Le Piagge",
        "natural": "peak"
      }
    },
    {
      "id": 1331083449,
      "latitude": 43.275861,
      "longitude": 11.1812161,
      "type": "peak",
      "name": "Poggio di Pescina",
      "elevation": 574.0,
      "tags": {
        "ele": "574",
        "name": "Poggio di Pescina",
        "natural": "peak"
      }
    },
    {
      "id": 1331083498,
      "latitude": 43.275414,
      "longitude": 11.1909816,
      "type": "peak",
      "name": "Poggio La Ferraia",
      "elevation": 581.0,
      "tags": {
        "ele": "581",
        "name": "Poggio La Ferraia",
        "natural": "peak"
      }
    },
    {
      "id": 1331083537,
      "latitude": 43.2729219,
      "longitude": 11.1738102,
      "type": "peak",
      "name": "Poggio alla Pigna",
      "elevation": 595.0,
      "tags": {
        "ele": "595",
        "name": "Poggio alla Pigna",
        "natural": "peak"
      }
    },
    {
      "id": 1331143170,
      "latitude": 43.2617374,
      "longitude": 11.2110793,
      "type": "peak",
      "name": "Poggio del Luco",
      "elevation": 447.0,
      "tags": {
        "ele": "447",
        "name": "Poggio del Luco",
        "natural": "peak"
      }
    },
    {
      "id": 1331143205,
      "latitude": 43.2553913,
      "longitude": 11.2107746,
      "type": "peak",
      "name": "Poggio del Crocino",
      "elevation": 433.0,
      "tags": {
        "ele": "433",
        "name": "Poggio del Crocino",
        "natural": "peak"
      }
    },
    {
      "id": 1331143239,
      "latitude": 43.2597685,
      "longitude": 11.2058393,
      "type": "peak",
      "name": "Poggio di Buffineta",
      "elevation": 458.0,
      "tags": {
        "alt_name": "Poggio Ruffinata",
        "ele": "458",
        "name": "Poggio di Buffineta",
        "natural": "peak"
      }
    },
    {
      "id": 1331143248,
      "latitude": 43.2841724,
      "longitude": 11.161703,
      "type": "peak",
      "name": "Poggio a Seta",
      "elevation": 540.0,
      "tags": {
        "ele": "540",
        "name": "Poggio a Seta",
        "natural": "peak"
      }
    },
    {
      "id": 1332420393,
      "latitude": 43.1021529,
      "longitude": 11.1974241,
      "type": "peak",
      "name": "Monte Quoio",
      "elevation": 636.0,
      "tags": {
        "ele": "636",
        "name": "Monte Quoio",
        "natural": "peak"
      }
    },
    {
      "id": 1332420523,
      "latitude": 43.113226,
      "longitude": 11.22869,
      "type": "peak",
      "name": "Poggio al Cupolone",
      "elevation": 558.0,
      "tags": {
        "ele": "558",
        "name": "Poggio al Cupolone",
        "natural": "peak"
      }
    },
    {
      "id": 1334558802,
      "latitude": 43.2122328,
      "longitude": 11.1803889,
      "type": "peak",
      "name": "Montemaggiore",
      "elevation": 456.2,
      "tags": {
        "ele": "456.2",
        "name": "Montemaggiore",
        "natural": "peak"
      }
    },
    {
      "id": 1334558924,
      "latitude": 43.2176022,
      "longitude": 11.1984929,
      "type": "peak",
      "name": "Poggio al Santo",
      "elevation": 412.0,
      "tags": {
        "ele": "412",
        "name": "Poggio al Santo",
        "natural": "peak"
      }
    },
    {
      "id": 1334558956,
      "latitude": 43.2166933,
      "longitude": 11.1823645,
      "type": "peak",
      "name": "Poggio Boscogrosso",
      "elevation": 430.0,
      "tags": {
        "ele": "430",
        "name": "Poggio Boscogrosso",
        "natural": "peak"
      }
    },
    {
      "id": 1334569642,
      "latitude": 43.2021254,
      "longitude": 11.1821296,
      "type": "peak",
      "name": "Poggio alla Trave",
      "elevation": 438.0,
      "tags": {
        "ele": "438",
        "name": "Poggio alla Trave",
        "natural": "peak"
      }
    },
    {
      "id": 1334569740,
      "latitude": 43.1899552,
      "longitude": 11.2010322,
      "type": "peak",
      "name": "Sasso al Fischio",
      "elevation": 432.0,
      "tags": {
        "ele": "432",
        "name": "Sasso al Fischio",
        "natural": "peak"
      }
    },
    {
      "id": 1334569768,
      "latitude": 43.190225,
      "longitude": 11.18915,
      "type": "peak",
      "name": "Poggio Gattacorta",
      "elevation": 488.8,
      "tags": {
        "ele": "488.8",
        "name": "Poggio Gattacorta",
        "natural": "peak"
      }
    },
    {
      "id": 1334569777,
      "latitude": 43.1894546,
      "longitude": 11.2076626,
      "type": "peak",
      "name": "Poggio delle Ragnaie",
      "elevation": 440.0,
      "tags": {
        "ele": "440",
        "name": "Poggio delle Ragnaie",
        "natural": "peak"
      }
    },
    {
      "id": 1334580116,
      "latitude": 43.1806053,
      "longitude": 11.208051,
      "type": "peak",
      "name": "Poggio Lavacchio",
      "elevation": 465.0,
      "tags": {
        "ele": "465",
        "name": "Poggio Lavacchio",
        "natural": "peak"
      }
    },
    {
      "id": 1334580117,
      "latitude": 43.1710552,
      "longitude": 11.2083278,
      "type": "peak",
      "name": "Poggio Romitello",
      "elevation": 473.0,
      "tags": {
        "ele": "473",
        "name": "Poggio Romitello",
        "natural": "peak"
      }
    },
    {
      "id": 1334580151,
      "latitude": 43.1599432,
      "longitude": 11.212276,
      "type": "peak",
      "name": "Masso degli Zingari",
      "elevation": 333.2,
      "tags": {
        "ele": "333.2",
        "name": "Masso degli Zingari",
        "natural": "peak"
      }
    },
    {
      "id": 1334580158,
      "latitude": 43.1837088,
      "longitude": 11.2141696,
      "type": "peak",
      "name": "Poggio i Piaggioni",
      "elevation": 453.0,
      "tags": {
        "ele": "453",
        "name": "Poggio i Piaggioni",
        "natural": "peak"
      }
    },
    {
      "id": 1335568203,
      "latitude": 43.2890789,
      "longitude": 11.1869978,
      "type": "peak",
      "name": "Poggio Pian del Monte",
      "elevation": 564.0,
      "tags": {
        "ele": "564",
        "name": "Poggio Pian del Monte",
        "natural": "peak"
      }
    },
    {
      "id": 1335568206,
      "latitude": 43.3021258,
      "longitude": 11.1815659,
      "type": "peak",
      "name": "Poggio Campegnoli",
      "elevation": 572.0,
      "tags": {
        "ele": "572",
        "name": "Poggio Campegnoli",
        "natural": "peak"
      }
    },
    {
      "id": 1335568231,
      "latitude": 43.2995709,
      "longitude": 11.1881008,
      "type": "peak",
      "name": "Poggio Scopeto",
      "elevation": 584.0,
      "tags": {
        "ele": "584",
        "name": "Poggio Scopeto",
        "natural": "peak"
      }
    },
    {
      "id": 1335568235,
      "latitude": 43.3191524,
      "longitude": 11.1649437,
      "type": "peak",
      "name": "Poggio ai Legni",
      "elevation": 666.0,
      "tags": {
        "ele": "666",
        "name": "Poggio ai Legni",
        "natural": "peak",
        "old_name": "Poggio alle Capanne"
      }
    },
    {
      "id": 1335568245,
      "latitude": 43.3187457,
      "longitude": 11.1540549,
      "type": "peak",
      "name": "Poggio San Michele",
      "elevation": 525.0,
      "tags": {
        "ele": "525",
        "name": "Poggio San Michele",
        "natural": "peak"
      }
    },
    {
      "id": 1335568249,
      "latitude": 43.3049931,
      "longitude": 11.171718,
      "type": "peak",
      "name": "Poggio Pescinale",
      "elevation": 638.0,
      "tags": {
        "ele": "638",
        "name": "Poggio Pescinale",
        "natural": "peak"
      }
    },
    {
      "id": 1335568263,
      "latitude": 43.3121588,
      "longitude": 11.1549229,
      "type": "peak",
      "name": "Poggio Riserno",
      "elevation": 584.0,
      "tags": {
        "ele": "584",
        "name": "Poggio Riserno",
        "natural": "peak"
      }
    },
    {
      "id": 1335568264,
      "latitude": 43.3050692,
      "longitude": 11.1437864,
      "type": "peak",
      "name": "Poggio d'Orgiale",
      "elevation": 436.0,
      "tags": {
        "ele": "436",
        "name": "Poggio d'Orgiale",
        "natural": "peak"
      }
    },
    {
      "id": 1338395626,
      "latitude": 43.176293,
      "longitude": 11.2367646,
      "type": "peak",
      "name": "Poggio della Croce",
      "elevation": 499.0,
      "tags": {
        "ele": "499",
        "name": "Poggio della Croce",
        "natural": "peak"
      }
    },
    {
      "id": 1338395833,
      "latitude": 43.1971239,
      "longitude": 11.2507075,
      "type": "peak",
      "name": "Poggio Pescille",
      "elevation": 416.0,
      "tags": {
        "ele": "416",
        "name": "Poggio Pescille",
        "natural": "peak"
      }
    },
    {
      "id": 1338395852,
      "latitude": 43.1649999,
      "longitude": 11.2291837,
      "type": "peak",
      "name": "Poggio al Gallo",
      "elevation": 530.0,
      "tags": {
        "ele": "530",
        "name": "Poggio al Gallo",
        "natural": "peak"
      }
    },
    {
      "id": 1338395908,
      "latitude": 43.1509656,
      "longitude": 11.2177081,
      "type": "peak",
      "name": "Poggio al Nibbio",
      "elevation": 299.2,
      "tags": {
        "ele": "299.2",
        "name": "Poggio al Nibbio",
        "natural": "peak"
      }
    },
    {
      "id": 1338395915,
      "latitude": 43.157516,
      "longitude": 11.2377678,
      "type": "peak",
      "name": "Poggio la Torretta",
      "elevation": 511.0,
      "tags": {
        "ele": "511",
        "name": "Poggio la Torretta",
        "natural": "peak"
      }
    },
    {
      "id": 1338395930,
      "latitude": 43.1813584,
      "longitude": 11.2593429,
      "type": "peak",
      "name": "Poggio San Piero",
      "elevation": 279.0,
      "tags": {
        "ele": "279",
        "name": "Poggio San Piero",
        "natural": "peak"
      }
    },
    {
      "id": 1338396013,
      "latitude": 43.1816135,
      "longitude": 11.2357669,
      "type": "peak",
      "name": "Poggio delle Pescine",
      "elevation": 520.4,
      "tags": {
        "ele": "520.4",
        "name": "Poggio delle Pescine",
        "natural": "peak"
      }
    },
    {
      "id": 1338396048,
      "latitude": 43.1894283,
      "longitude": 11.2358307,
      "type": "peak",
      "name": "Poggio Romito",
      "elevation": 481.0,
      "tags": {
        "ele": "481",
        "name": "Poggio Romito",
        "natural": "peak"
      }
    },
    {
      "id": 1338396068,
      "latitude": 43.1851742,
      "longitude": 11.2444691,
      "type": "peak",
      "name": "Poggio Leccetone",
      "elevation": 486.0,
      "tags": {
        "ele": "486",
        "name": "Poggio Leccetone",
        "natural": "peak"
      }
    },
    {
      "id": 1340171066,
      "latitude": 43.249111,
      "longitude": 11.2042283,
      "type": "peak",
      "name": "Poggio le Piagge",
      "elevation": 402.0,
      "tags": {
        "ele": "402",
        "name": "Poggio le Piagge",
        "natural": "peak"
      }
    },
    {
      "id": 1340309081,
      "latitude": 43.2026349,
      "longitude": 11.2258069,
      "type": "peak",
      "name": "Poggio Giratoio",
      "elevation": 274.6,
      "tags": {
        "ele": "274.6",
        "name": "Poggio Giratoio",
        "natural": "peak"
      }
    },
    {
      "id": 1340609677,
      "latitude": 43.1730988,
      "longitude": 11.2520626,
      "type": "peak",
      "name": "Poggio le Coppiole",
      "elevation": 318.0,
      "tags": {
        "ele": "318",
        "name": "Poggio le Coppiole",
        "natural": "peak"
      }
    },
    {
      "id": 1341042800,
      "latitude": 43.2854931,
      "longitude": 11.2289488,
      "type": "peak",
      "name": "I Poggiarini",
      "elevation": 274.0,
      "tags": {
        "ele": "274",
        "name": "I Poggiarini",
        "natural": "peak"
      }
    },
    {
      "id": 1341797042,
      "latitude": 43.2904663,
      "longitude": 11.1823178,
      "type": "peak",
      "name": "Poggio al Pero",
      "elevation": 534.0,
      "tags": {
        "ele": "534",
        "name": "Poggio al Pero",
        "natural": "peak"
      }
    },
    {
      "id": 1343046834,
      "latitude": 43.3480992,
      "longitude": 11.2152382,
      "type": "peak",
      "name": "Monte Morio",
      "elevation": 500.0,
      "tags": {
        "ele": "500",
        "name": "Monte Morio",
        "natural": "peak"
      }
    },
    {
      "id": 1343301868,
      "latitude": 43.230406,
      "longitude": 11.1950384,
      "type": "peak",
      "name": "Le Rocche",
      "elevation": 435.7,
      "tags": {
        "ele": "435.7",
        "name": "Le Rocche",
        "natural": "peak"
      }
    },
    {
      "id": 1349141221,
      "latitude": 43.2449151,
      "longitude": 11.1919956,
      "type": "peak",
      "name": "Poggio Ginepraio",
      "elevation": 434.2,
      "tags": {
        "ele": "434.2",
        "name": "Poggio Ginepraio",
        "natural": "peak"
      }
    },
    {
      "id": 1349141284,
      "latitude": 43.271524,
      "longitude": 11.163987,
      "type": "peak",
      "name": "Poggio a Caprazoppa",
      "elevation": 572.0,
      "tags": {
        "ele": "572",
        "name": "Poggio a Caprazoppa",
        "natural": "peak"
      }
    },
    {
      "id": 1349330353,
      "latitude": 43.3187294,
      "longitude": 11.2228779,
      "type": "peak",
      "name": "Poggio del Lagaccio",
      "elevation": 369.0,
      "tags": {
        "ele": "369",
        "name": "Poggio del Lagaccio",
        "natural": "peak"
      }
    },
    {
      "id": 1349354384,
      "latitude": 43.2978162,
      "longitude": 11.1342677,
      "type": "peak",
      "name": "Poggio all'Aquila",
      "elevation": 388.0,
      "tags": {
        "ele": "388",
        "name": "Poggio all'Aquila",
        "natural": "peak"
      }
    },
    {
      "id": 1349509812,
      "latitude": 43.3075219,
      "longitude": 11.1875132,
      "type": "peak",
      "name": "Poggio al Lupo",
      "elevation": 606.0,
      "tags": {
        "ele": "606",
        "name": "Poggio al Lupo",
        "natural": "peak"
      }
    },
    {
      "id": 1351414164,
      "latitude": 43.1530141,
      "longitude": 11.2616595,
      "type": "peak",
      "name": "Montaggi",
      "elevation": 418.0,
      "tags": {
        "ele": "418",
        "name": "Montaggi",
        "natural": "peak"
      }
    },
    {
      "id": 1352717570,
      "latitude": 43.3028109,
      "longitude": 11.2412885,
      "type": "peak",
      "name": "Poggio La Piana",
      "elevation": 320.0,
      "tags": {
        "ele": "320",
        "name": "Poggio La Piana",
        "natural": "peak"
      }
    },
    {
      "id": 1352717582,
      "latitude": 43.2527562,
      "longitude": 11.2141944,
      "type": "peak",
      "name": "Poggio Marronetino",
      "elevation": 381.0,
      "tags": {
        "ele": "381",
        "name": "Poggio Marronetino",
        "natural": "peak"
      }
    },
    {
      "id": 1352717583,
      "latitude": 43.2544544,
      "longitude": 11.2069232,
      "type": "peak",
      "name": "Poggio Rigo Taglio",
      "elevation": 412.0,
      "tags": {
        "ele": "412",
        "name": "Poggio Rigo Taglio",
        "natural": "peak"
      }
    },
    {
      "id": 1353625026,
      "latitude": 43.3404028,
      "longitude": 11.193189,
      "type": "peak",
      "name": null,
      "elevation": 625.0,
      "tags": {
        "ele": "625",
        "natural": "peak"
      }
    },
    {
      "id": 1353855972,
      "latitude": 43.3434796,
      "longitude": 11.26906,
      "type": "peak",
      "name": "Poggiali",
      "elevation": 301.8,
      "tags": {
        "ele": "301.8",
        "name": "Poggiali",
        "natural": "peak"
      }
    },
    {
      "id": 1354253678,
      "latitude": 43.3092761,
      "longitude": 11.2566058,
      "type": "peak",
      "name": "Il Poggione",
      "elevation": 402.0,
      "tags": {
        "ele": "402",
        "name": "Il Poggione",
        "natural": "peak"
      }
    },
    {
      "id": 1354253679,
      "latitude": 43.3108016,
      "longitude": 11.2691651,
      "type": "peak",
      "name": "Piazza ai Lecci",
      "elevation": 338.0,
      "tags": {
        "ele": "338",
        "name": "Piazza ai Lecci",
        "natural": "peak"
      }
    },
    {
      "id": 1354253680,
      "latitude": 43.3080625,
      "longitude": 11.2507292,
      "type": "peak",
      "name": "Poggio Cannicci",
      "elevation": 410.0,
      "tags": {
        "ele": "410",
        "name": "Poggio Cannicci",
        "natural": "peak"
      }
    },
    {
      "id": 1354253681,
      "latitude": 43.3005932,
      "longitude": 11.2786731,
      "type": "peak",
      "name": "Poggio La Leccia",
      "elevation": 276.0,
      "tags": {
        "ele": "276",
        "name": "Poggio La Leccia",
        "natural": "peak"
      }
    },
    {
      "id": 1359184667,
      "latitude": 43.1444692,
      "longitude": 11.0302752,
      "type": "peak",
      "name": "Montemurlo",
      "elevation": 835.0,
      "tags": {
        "ele": "835",
        "name": "Montemurlo",
        "natural": "peak"
      }
    },
    {
      "id": 1360226160,
      "latitude": 43.0989935,
      "longitude": 11.0233525,
      "type": "peak",
      "name": "Poggio di Valle Buia",
      "elevation": 701.0,
      "tags": {
        "ele": "701",
        "name": "Poggio di Valle Buia",
        "natural": "peak"
      }
    },
    {
      "id": 1365350372,
      "latitude": 43.3198452,
      "longitude": 11.3274106,
      "type": "viewpoint",
      "name": null,
      "elevation": null,
      "tags": {
        "tourism": "viewpoint"
      }
    },
    {
      "id": 1365358337,
      "latitude": 43.3153643,
      "longitude": 11.3379605,
      "type": "viewpoint",
      "name": null,
      "elevation": null,
      "tags": {
        "tourism": "viewpoint"
      }
    },
    {
      "id": 1378799854,
      "latitude": 43.1058647,
      "longitude": 11.1533322,
      "type": "peak",
      "name": "Il Poggione",
      "elevation": 562.0,
      "tags": {
        "ele": "562",
        "name": "Il Poggione",
        "natural": "peak"
      }
    },
    {
      "id": 1378799855,
      "latitude": 43.1133682,
      "longitude": 11.1210823,
      "type": "peak",
      "name": "La Castellaccia",
      "elevation": 542.0,
      "tags": {
        "ele": "542",
        "name": "La Castellaccia",
        "natural": "peak"
      }
    },
    {
      "id": 1378799858,
      "latitude": 43.1030151,
      "longitude": 11.168612,
      "type": "peak",
      "name": "Monte Formoli",
      "elevation": 536.0,
      "tags": {
        "ele": "536",
        "name": "Monte Formoli",
        "natural": "peak"
      }
    },
    {
      "id": 1378799866,
      "latitude": 43.1324226,
      "longitude": 11.1434808,
      "type": "peak",
      "name": "Poggio Paganico",
      "elevation": 380.0,
      "tags": {
        "ele": "380",
        "name": "Poggio Paganico",
        "natural": "peak"
      }
    },
    {
      "id": 1378799868,
      "latitude": 43.1119715,
      "longitude": 11.1288171,
      "type": "peak",
      "name": "Poggio al Bianco",
      "elevation": 529.0,
      "tags": {
        "ele": "529",
        "name": "Poggio al Bianco",
        "natural": "peak"
      }
    },
    {
      "id": 1378799869,
      "latitude": 43.1006552,
      "longitude": 11.1591116,
      "type": "peak",
      "name": "Poggio la Calcina",
      "elevation": 521.0,
      "tags": {
        "ele": "521",
        "name": "Poggio la Calcina",
        "natural": "peak"
      }
    },
    {
      "id": 1382008947,
      "latitude": 43.1850179,
      "longitude": 11.1602754,
      "type": "peak",
      "name": "Poggio Cerinalto",
      "elevation": 320.0,
      "tags": {
        "ele": "320",
        "name": "Poggio Cerinalto",
        "natural": "peak"
      }
    },
    {
      "id": 1382008954,
      "latitude": 43.1982515,
      "longitude": 11.1809524,
      "type": "peak",
      "name": "Poggio Farineto",
      "elevation": null,
      "tags": {
        "name": "Poggio Farineto",
        "natural": "peak"
      }
    },
    {
      "id": 1382008955,
      "latitude": 43.1820697,
      "longitude": 11.1637779,
      "type": "peak",
      "name": "Poggio alla Cenere",
      "elevation": 320.0,
      "tags": {
        "ele": "320",
        "name": "Poggio alla Cenere",
        "natural": "peak"
      }
    },
    {
      "id": 1383399433,
      "latitude": 43.146573,
      "longitude": 11.0653651,
      "type": "peak",
      "name": "Il Poggio",
      "elevation": 620.0,
      "tags": {
        "ele": "620",
        "name": "Il Poggio",
        "natural": "peak"
      }
    },
    {
      "id": 1383399434,
      "latitude": 43.1592995,
      "longitude": 11.0475048,
      "type": "peak",
      "name": "Poggio Aquarello",
      "elevation": 666.0,
      "tags": {
        "ele": "666",
        "name": "Poggio Aquarello",
        "natural": "peak"
      }
    },
    {
      "id": 1383399435,
      "latitude": 43.2102533,
      "longitude": 11.1218893,
      "type": "peak",
      "name": "Poggio Carnevale",
      "elevation": 400.0,
      "tags": {
        "ele": "400",
        "name": "Poggio Carnevale",
        "natural": "peak"
      }
    },
    {
      "id": 1383399436,
      "latitude": 43.2215254,
      "longitude": 11.1460894,
      "type": "peak",
      "name": "Poggio Donne Morte",
      "elevation": 347.0,
      "tags": {
        "ele": "347",
        "name": "Poggio Donne Morte",
        "natural": "peak"
      }
    },
    {
      "id": 1383399445,
      "latitude": 43.1594206,
      "longitude": 11.0308912,
      "type": "peak",
      "name": "Poggio Guerco",
      "elevation": 531.0,
      "tags": {
        "ele": "531",
        "name": "Poggio Guerco",
        "natural": "peak"
      }
    },
    {
      "id": 1383399454,
      "latitude": 43.2402648,
      "longitude": 11.1232915,
      "type": "peak",
      "name": "Poggio Il Terminone",
      "elevation": 486.0,
      "tags": {
        "ele": "486",
        "name": "Poggio Il Terminone",
        "natural": "peak"
      }
    },
    {
      "id": 1383399458,
      "latitude": 43.1545104,
      "longitude": 11.0401142,
      "type": "peak",
      "name": "Poggio di Colle Ficchi",
      "elevation": 582.0,
      "tags": {
        "ele": "582",
        "name": "Poggio di Colle Ficchi",
        "natural": "peak"
      }
    },
    {
      "id": 1384181671,
      "latitude": 43.2070996,
      "longitude": 11.0293853,
      "type": "peak",
      "name": "Poggio Pianacce",
      "elevation": 455.0,
      "tags": {
        "ele": "455",
        "name": "Poggio Pianacce",
        "natural": "peak"
      }
    },
    {
      "id": 1384324844,
      "latitude": 43.1908985,
      "longitude": 11.0395291,
      "type": "peak",
      "name": "Monte Gabbro",
      "elevation": 557.0,
      "tags": {
        "ele": "557",
        "importance": "regional",
        "name": "Monte Gabbro",
        "natural": "peak"
      }
    },
    {
      "id": 1384359674,
      "latitude": 43.1947511,
      "longitude": 11.0882856,
      "type": "peak",
      "name": "Poggettone",
      "elevation": 493.0,
      "tags": {
        "ele": "493",
        "name": "Poggettone",
        "natural": "peak"
      }
    },
    {
      "id": 1384359677,
      "latitude": 43.2566067,
      "longitude": 11.0863509,
      "type": "peak",
      "name": "Poggio Casalone",
      "elevation": 724.3,
      "tags": {
        "ele": "724.3",
        "importance": "regional",
        "name": "Poggio Casalone",
        "natural": "peak"
      }
    },
    {
      "id": 1384359679,
      "latitude": 43.2682649,
      "longitude": 11.11116,
      "type": "peak",
      "name": "Poggio al Campo",
      "elevation": 592.0,
      "tags": {
        "ele": "592",
        "name": "Poggio al Campo",
        "natural": "peak"
      }
    },
    {
      "id": 1384359681,
      "latitude": 43.1901691,
      "longitude": 11.0909363,
      "type": "peak",
      "name": "Poggio al Monte",
      "elevation": 394.0,
      "tags": {
        "ele": "394",
        "name": "Poggio al Monte",
        "natural": "peak"
      }
    },
    {
      "id": 1384415487,
      "latitude": 43.2178973,
      "longitude": 11.0852625,
      "type": "peak",
      "name": "Poggio Chelino",
      "elevation": 395.0,
      "tags": {
        "ele": "395",
        "name": "Poggio Chelino",
        "natural": "peak"
      }
    },
    {
      "id": 1384427784,
      "latitude": 43.2402177,
      "longitude": 11.0980734,
      "type": "peak",
      "name": "Poggio al Vento",
      "elevation": 608.0,
      "tags": {
        "ele": "608",
        "name": "Poggio al Vento",
        "natural": "peak"
      }
    },
    {
      "id": 1384606845,
      "latitude": 43.1634985,
      "longitude": 11.1951489,
      "type": "peak",
      "name": "Poggio Cerro Fogliuto",
      "elevation": 372.1,
      "tags": {
        "ele": "372.1",
        "name": "Poggio Cerro Fogliuto",
        "natural": "peak"
      }
    },
    {
      "id": 1384606851,
      "latitude": 43.1573182,
      "longitude": 11.2024445,
      "type": "peak",
      "name": "Poggio Mallecchi",
      "elevation": 420.0,
      "tags": {
        "ele": "420",
        "name": "Poggio Mallecchi",
        "natural": "peak"
      }
    },
    {
      "id": 1384744698,
      "latitude": 43.1402008,
      "longitude": 11.2350531,
      "type": "peak",
      "name": "Poggio Cerrotondo",
      "elevation": 479.0,
      "tags": {
        "ele": "479",
        "name": "Poggio Cerrotondo",
        "natural": "peak"
      }
    },
    {
      "id": 1384744710,
      "latitude": 43.1367276,
      "longitude": 11.2323457,
      "type": "peak",
      "name": "Poggio La Guardia",
      "elevation": 495.0,
      "tags": {
        "ele": "495",
        "name": "Poggio La Guardia",
        "natural": "peak"
      }
    },
    {
      "id": 1384744715,
      "latitude": 43.1400291,
      "longitude": 11.2470551,
      "type": "peak",
      "name": "Poggio Sincera",
      "elevation": 504.0,
      "tags": {
        "ele": "504",
        "name": "Poggio Sincera",
        "natural": "peak"
      }
    },
    {
      "id": 1384744719,
      "latitude": 43.1249146,
      "longitude": 11.2405588,
      "type": "peak",
      "name": "Poggio Tagliato",
      "elevation": 446.0,
      "tags": {
        "ele": "446",
        "name": "Poggio Tagliato",
        "natural": "peak"
      }
    },
    {
      "id": 1384744724,
      "latitude": 43.1430156,
      "longitude": 11.2414714,
      "type": "peak",
      "name": "Poggio delle Buche",
      "elevation": 518.0,
      "tags": {
        "ele": "518",
        "name": "Poggio delle Buche",
        "natural": "peak"
      }
    },
    {
      "id": 1384744731,
      "latitude": 43.1209175,
      "longitude": 11.2308087,
      "type": "peak",
      "name": "Poggio le Fontanelle",
      "elevation": 557.0,
      "tags": {
        "ele": "557",
        "name": "Poggio le Fontanelle",
        "natural": "peak"
      }
    },
    {
      "id": 1384984171,
      "latitude": 43.1288079,
      "longitude": 11.2077441,
      "type": "peak",
      "name": "Poggio Camerata",
      "elevation": 528.0,
      "tags": {
        "ele": "528",
        "name": "Poggio Camerata",
        "natural": "peak"
      }
    },
    {
      "id": 1384984177,
      "latitude": 43.1265822,
      "longitude": 11.1990644,
      "type": "peak",
      "name": "Poggio Scalari",
      "elevation": 437.0,
      "tags": {
        "ele": "437",
        "name": "Poggio Scalari",
        "natural": "peak"
      }
    },
    {
      "id": 1384984186,
      "latitude": 43.1148429,
      "longitude": 11.1558875,
      "type": "peak",
      "name": "Poggio Tondo",
      "elevation": 447.0,
      "tags": {
        "ele": "447",
        "name": "Poggio Tondo",
        "natural": "peak"
      }
    },
    {
      "id": 1384984193,
      "latitude": 43.120851,
      "longitude": 11.1546455,
      "type": "peak",
      "name": "Poggio del Casino",
      "elevation": 492.0,
      "tags": {
        "ele": "492",
        "name": "Poggio del Casino",
        "natural": "peak",
        "wikidata": "Q31624863"
      }
    },
    {
      "id": 1384984200,
      "latitude": 43.1544497,
      "longitude": 11.1584013,
      "type": "peak",
      "name": "Poggio della Cappella",
      "elevation": 344.0,
      "tags": {
        "ele": "344",
        "name": "Poggio della Cappella",
        "natural": "peak"
      }
    },
    {
      "id": 1384984206,
      "latitude": 43.1091987,
      "longitude": 11.1694887,
      "type": "peak",
      "name": "Poggio di Cigna",
      "elevation": 492.0,
      "tags": {
        "ele": "492",
        "name": "Poggio di Cigna",
        "natural": "peak"
      }
    },
    {
      "id": 1384984226,
      "latitude": 43.1073572,
      "longitude": 11.2074371,
      "type": "peak",
      "name": "Poggio di Lali",
      "elevation": 530.0,
      "tags": {
        "ele": "530",
        "name": "Poggio di Lali",
        "natural": "peak"
      }
    },
    {
      "id": 1384986974,
      "latitude": 43.1066174,
      "longitude": 11.1763874,
      "type": "peak",
      "name": "Poggio Castiglioncello",
      "elevation": 442.0,
      "tags": {
        "ele": "442",
        "name": "Poggio Castiglioncello",
        "natural": "peak"
      }
    },
    {
      "id": 1386055750,
      "latitude": 43.1670265,
      "longitude": 11.1168096,
      "type": "peak",
      "name": "La Poggiarella",
      "elevation": 370.0,
      "tags": {
        "ele": "370",
        "name": "La Poggiarella",
        "natural": "peak"
      }
    },
    {
      "id": 1386055751,
      "latitude": 43.1067556,
      "longitude": 11.0845241,
      "type": "peak",
      "name": "Poggio le Soline",
      "elevation": 673.0,
      "tags": {
        "ele": "673",
        "name": "Poggio le Soline",
        "natural": "peak"
      }
    },
    {
      "id": 1386318008,
      "latitude": 43.1160853,
      "longitude": 11.1289752,
      "type": "peak",
      "name": "Il Serrino",
      "elevation": 457.0,
      "tags": {
        "ele": "457",
        "name": "Il Serrino",
        "natural": "peak"
      }
    },
    {
      "id": 1386318012,
      "latitude": 43.1132108,
      "longitude": 11.0914278,
      "type": "peak",
      "name": "Poggio Fogari",
      "elevation": 730.0,
      "tags": {
        "ele": "730",
        "name": "Poggio Fogari",
        "natural": "peak"
      }
    },
    {
      "id": 1386318029,
      "latitude": 43.1019489,
      "longitude": 11.1065557,
      "type": "peak",
      "name": "Poggio delle Mandriacce",
      "elevation": 540.0,
      "tags": {
        "ele": "540",
        "name": "Poggio delle Mandriacce",
        "natural": "peak"
      }
    },
    {
      "id": 1386559612,
      "latitude": 43.1431645,
      "longitude": 11.0894324,
      "type": "peak",
      "name": "Poggio della Badia",
      "elevation": 408.0,
      "tags": {
        "ele": "408",
        "name": "Poggio della Badia",
        "natural": "peak"
      }
    },
    {
      "id": 1387260656,
      "latitude": 43.1166694,
      "longitude": 11.0624887,
      "type": "peak",
      "name": "Il Poggettone",
      "elevation": 504.0,
      "tags": {
        "ele": "504",
        "name": "Il Poggettone",
        "natural": "peak"
      }
    },
    {
      "id": 1387260663,
      "latitude": 43.0985552,
      "longitude": 11.0663975,
      "type": "peak",
      "name": "Poggio Cusa",
      "elevation": 676.0,
      "tags": {
        "ele": "676",
        "name": "Poggio Cusa",
        "natural": "peak"
      }
    },
    {
      "id": 1387260666,
      "latitude": 43.1105249,
      "longitude": 11.0572443,
      "type": "peak",
      "name": "Poggio Pispini",
      "elevation": 562.0,
      "tags": {
        "ele": "562",
        "name": "Poggio Pispini",
        "natural": "peak"
      }
    },
    {
      "id": 1387455445,
      "latitude": 43.1077376,
      "longitude": 11.0039251,
      "type": "peak",
      "name": "Il Poggiaccio",
      "elevation": 605.0,
      "tags": {
        "ele": "605",
        "name": "Il Poggiaccio",
        "natural": "peak"
      }
    },
    {
      "id": 1387455447,
      "latitude": 43.1076115,
      "longitude": 11.0099589,
      "type": "peak",
      "name": "Il Poggiale",
      "elevation": 620.0,
      "tags": {
        "ele": "620",
        "name": "Il Poggiale",
        "natural": "peak"
      }
    },
    {
      "id": 1387455448,
      "latitude": 43.1089786,
      "longitude": 11.0176809,
      "type": "peak",
      "name": "Il Poggione",
      "elevation": 565.0,
      "tags": {
        "ele": "565",
        "name": "Il Poggione",
        "natural": "peak"
      }
    },
    {
      "id": 1387455457,
      "latitude": 43.0972272,
      "longitude": 11.0503616,
      "type": "peak",
      "name": "Poggio Bartolo",
      "elevation": 603.0,
      "tags": {
        "ele": "603",
        "name": "Poggio Bartolo",
        "natural": "peak"
      }
    },
    {
      "id": 1387455460,
      "latitude": 43.1050979,
      "longitude": 10.9967401,
      "type": "peak",
      "name": "Poggio Caselli",
      "elevation": 691.0,
      "tags": {
        "ele": "691",
        "name": "Poggio Caselli",
        "natural": "peak"
      }
    },
    {
      "id": 1388362955,
      "latitude": 43.0952064,
      "longitude": 11.0084466,
      "type": "peak",
      "name": "Cima del Campino",
      "elevation": 725.0,
      "tags": {
        "ele": "725",
        "name": "Cima del Campino",
        "natural": "peak"
      }
    },
    {
      "id": 1388362956,
      "latitude": 43.0905983,
      "longitude": 11.0156706,
      "type": "peak",
      "name": "Poggio Poderi",
      "elevation": 604.0,
      "tags": {
        "ele": "604",
        "name": "Poggio Poderi",
        "natural": "peak"
      }
    },
    {
      "id": 1390748166,
      "latitude": 43.1566759,
      "longitude": 11.2719244,
      "type": "peak",
      "name": "Poggio La Casa",
      "elevation": 324.0,
      "tags": {
        "ele": "324",
        "name": "Poggio La Casa",
        "natural": "peak"
      }
    },
    {
      "id": 1392445799,
      "latitude": 43.1331492,
      "longitude": 11.277424,
      "type": "peak",
      "name": "Il Poggione",
      "elevation": 385.0,
      "tags": {
        "ele": "385",
        "name": "Il Poggione",
        "natural": "peak"
      }
    },
    {
      "id": 1392445804,
      "latitude": 43.1075301,
      "longitude": 11.2766187,
      "type": "peak",
      "name": "Poggio Cetinaccia",
      "elevation": 391.0,
      "tags": {
        "ele": "391",
        "name": "Poggio Cetinaccia",
        "natural": "peak"
      }
    },
    {
      "id": 1392445814,
      "latitude": 43.1358232,
      "longitude": 11.2593024,
      "type": "peak",
      "name": "Poggio La Sassa",
      "elevation": 426.0,
      "tags": {
        "ele": "426",
        "name": "Poggio La Sassa",
        "natural": "peak"
      }
    },
    {
      "id": 1392445816,
      "latitude": 43.1301546,
      "longitude": 11.2540432,
      "type": "peak",
      "name": "Poggio Macinaio",
      "elevation": 442.0,
      "tags": {
        "ele": "442",
        "name": "Poggio Macinaio",
        "natural": "peak"
      }
    },
    {
      "id": 1392445818,
      "latitude": 43.112459,
      "longitude": 11.2407473,
      "type": "peak",
      "name": "Poggio Sasso Piano",
      "elevation": 496.0,
      "tags": {
        "ele": "496",
        "name": "Poggio Sasso Piano",
        "natural": "peak"
      }
    },
    {
      "id": 1392445822,
      "latitude": 43.1058609,
      "longitude": 11.2804653,
      "type": "peak",
      "name": "Poggio Serigioni",
      "elevation": 378.0,
      "tags": {
        "ele": "378",
        "name": "Poggio Serigioni",
        "natural": "peak"
      }
    },
    {
      "id": 1392445825,
      "latitude": 43.11668,
      "longitude": 11.2797359,
      "type": "peak",
      "name": "Poggio Siena Vecchia",
      "elevation": 315.0,
      "tags": {
        "ele": "315",
        "name": "Poggio Siena Vecchia",
        "natural": "peak"
      }
    },
    {
      "id": 1392445829,
      "latitude": 43.1223657,
      "longitude": 11.2525515,
      "type": "peak",
      "name": "Poggio Tagliaio",
      "elevation": 424.0,
      "tags": {
        "ele": "424",
        "name": "Poggio Tagliaio",
        "natural": "peak"
      }
    },
    {
      "id": 1392445833,
      "latitude": 43.1142433,
      "longitude": 11.2486328,
      "type": "peak",
      "name": "Poggio del Fallo",
      "elevation": 478.0,
      "tags": {
        "ele": "478",
        "name": "Poggio del Fallo",
        "natural": "peak"
      }
    },
    {
      "id": 1392445836,
      "latitude": 43.1108711,
      "longitude": 11.2837011,
      "type": "peak",
      "name": "Poggio della Morigiana",
      "elevation": 338.0,
      "tags": {
        "ele": "338",
        "name": "Poggio della Morigiana",
        "natural": "peak"
      }
    },
    {
      "id": 1392445840,
      "latitude": 43.0988134,
      "longitude": 11.2769706,
      "type": "peak",
      "name": "Poggio della Torretta",
      "elevation": 482.0,
      "tags": {
        "ele": "482",
        "name": "Poggio della Torretta",
        "natural": "peak"
      }
    },
    {
      "id": 1392445842,
      "latitude": 43.1263559,
      "longitude": 11.2807887,
      "type": "peak",
      "name": "Poggio delle Caggiole",
      "elevation": 309.0,
      "tags": {
        "ele": "309",
        "name": "Poggio delle Caggiole",
        "natural": "peak"
      }
    },
    {
      "id": 1392611606,
      "latitude": 43.0714978,
      "longitude": 11.0960792,
      "type": "peak",
      "name": "Poggio Albatrone",
      "elevation": 461.0,
      "tags": {
        "ele": "461",
        "name": "Poggio Albatrone",
        "natural": "peak"
      }
    },
    {
      "id": 1392611607,
      "latitude": 43.0780369,
      "longitude": 11.3369616,
      "type": "peak",
      "name": "Poggio Castrapopoli",
      "elevation": 243.0,
      "tags": {
        "ele": "243",
        "name": "Poggio Castrapopoli",
        "natural": "peak"
      }
    },
    {
      "id": 1392611608,
      "latitude": 43.0285065,
      "longitude": 11.04958,
      "type": "peak",
      "name": "Poggio Pozzona",
      "elevation": 559.0,
      "tags": {
        "ele": "559",
        "name": "Poggio Pozzona",
        "natural": "peak"
      }
    },
    {
      "id": 1392611610,
      "latitude": 43.0784756,
      "longitude": 11.3266668,
      "type": "peak",
      "name": "Poggio dei Termini",
      "elevation": 252.0,
      "tags": {
        "ele": "252",
        "name": "Poggio dei Termini",
        "natural": "peak"
      }
    },
    {
      "id": 1392719099,
      "latitude": 43.0374565,
      "longitude": 11.0452763,
      "type": "peak",
      "name": "Poggio Fornoli",
      "elevation": 581.0,
      "tags": {
        "ele": "581",
        "name": "Poggio Fornoli",
        "natural": "peak"
      }
    },
    {
      "id": 1392719100,
      "latitude": 43.0383916,
      "longitude": 11.0334428,
      "type": "peak",
      "name": "Poggio Santini",
      "elevation": 600.0,
      "tags": {
        "ele": "600",
        "name": "Poggio Santini",
        "natural": "peak"
      }
    },
    {
      "id": 1392719101,
      "latitude": 43.0468704,
      "longitude": 11.0528965,
      "type": "peak",
      "name": "Poggio Villori",
      "elevation": 535.0,
      "tags": {
        "ele": "535",
        "name": "Poggio Villori",
        "natural": "peak"
      }
    },
    {
      "id": 1392719102,
      "latitude": 43.0412063,
      "longitude": 11.0230151,
      "type": "peak",
      "name": "Poggio ai Tedeschi",
      "elevation": 595.0,
      "tags": {
        "ele": "595",
        "name": "Poggio ai Tedeschi",
        "natural": "peak"
      }
    },
    {
      "id": 1392719105,
      "latitude": 43.0540556,
      "longitude": 11.0544743,
      "type": "peak",
      "name": "Poggio alle Guardie",
      "elevation": 536.0,
      "tags": {
        "ele": "536",
        "name": "Poggio alle Guardie",
        "natural": "peak"
      }
    },
    {
      "id": 1397027518,
      "latitude": 43.0899169,
      "longitude": 11.2852564,
      "type": "peak",
      "name": "Poggio Calabrose",
      "elevation": 435.0,
      "tags": {
        "ele": "435",
        "name": "Poggio Calabrose",
        "natural": "peak"
      }
    },
    {
      "id": 1397027527,
      "latitude": 43.0616861,
      "longitude": 11.2840979,
      "type": "peak",
      "name": "Poggio La Torretta",
      "elevation": 542.0,
      "tags": {
        "ele": "542",
        "name": "Poggio La Torretta",
        "natural": "peak"
      }
    },
    {
      "id": 1397027529,
      "latitude": 43.0960721,
      "longitude": 11.2789432,
      "type": "peak",
      "name": "Poggio della Croce",
      "elevation": 463.0,
      "tags": {
        "ele": "463",
        "name": "Poggio della Croce",
        "natural": "peak"
      }
    },
    {
      "id": 1397027530,
      "latitude": 43.0742815,
      "longitude": 11.322122,
      "type": "peak",
      "name": "Poggio di Bellaria",
      "elevation": 356.0,
      "tags": {
        "ele": "356",
        "name": "Poggio di Bellaria",
        "natural": "peak"
      }
    },
    {
      "id": 1398705891,
      "latitude": 43.0921069,
      "longitude": 11.2443484,
      "type": "peak",
      "name": "Poggio Cristiani",
      "elevation": 372.0,
      "tags": {
        "ele": "372",
        "name": "Poggio Cristiani",
        "natural": "peak"
      }
    },
    {
      "id": 1398705901,
      "latitude": 43.0702812,
      "longitude": 11.2767203,
      "type": "peak",
      "name": "Poggio Leccioni",
      "elevation": 597.0,
      "tags": {
        "ele": "597",
        "name": "Poggio Leccioni",
        "natural": "peak"
      }
    },
    {
      "id": 1398705943,
      "latitude": 43.0900878,
      "longitude": 11.2359191,
      "type": "peak",
      "name": "Poggio Scorcola",
      "elevation": 336.0,
      "tags": {
        "ele": "336",
        "name": "Poggio Scorcola",
        "natural": "peak"
      }
    },
    {
      "id": 1398705982,
      "latitude": 43.0850492,
      "longitude": 11.2283979,
      "type": "peak",
      "name": "Poggio al Nibbio",
      "elevation": 457.0,
      "tags": {
        "ele": "457",
        "name": "Poggio al Nibbio",
        "natural": "peak"
      }
    },
    {
      "id": 1398705987,
      "latitude": 43.1050165,
      "longitude": 11.2433434,
      "type": "peak",
      "name": "Poggio alla Veglia",
      "elevation": 487.0,
      "tags": {
        "ele": "487",
        "name": "Poggio alla Veglia",
        "natural": "peak"
      }
    },
    {
      "id": 1398705989,
      "latitude": 43.0731158,
      "longitude": 11.2636278,
      "type": "peak",
      "name": "Poggio alle Pigne",
      "elevation": 555.0,
      "tags": {
        "ele": "555",
        "name": "Poggio alle Pigne",
        "natural": "peak"
      }
    },
    {
      "id": 1419994460,
      "latitude": 43.1483593,
      "longitude": 11.3647659,
      "type": "peak",
      "name": "Poggio Acquabona",
      "elevation": 359.0,
      "tags": {
        "ele": "359",
        "name": "Poggio Acquabona",
        "natural": "peak"
      }
    },
    {
      "id": 1419994466,
      "latitude": 43.146487,
      "longitude": 11.3591,
      "type": "peak",
      "name": "Poggio La Cava",
      "elevation": 363.0,
      "tags": {
        "ele": "363",
        "name": "Poggio La Cava",
        "natural": "peak"
      }
    },
    {
      "id": 1419994467,
      "latitude": 43.1421813,
      "longitude": 11.362535,
      "type": "peak",
      "name": "Poggio al Leccione",
      "elevation": 368.0,
      "tags": {
        "ele": "368",
        "name": "Poggio al Leccione",
        "natural": "peak"
      }
    },
    {
      "id": 1428118063,
      "latitude": 43.2707752,
      "longitude": 11.320894,
      "type": "peak",
      "name": "Poggio Montecucco",
      "elevation": 243.2,
      "tags": {
        "ele": "243.2",
        "name": "Poggio Montecucco",
        "natural": "peak"
      }
    },
    {
      "id": 1428118068,
      "latitude": 43.274871,
      "longitude": 11.3081233,
      "type": "peak",
      "name": "Poggio del Morvido",
      "elevation": 245.0,
      "tags": {
        "ele": "245",
        "name": "Poggio del Morvido",
        "natural": "peak"
      }
    },
    {
      "id": 1428689427,
      "latitude": 43.297696,
      "longitude": 11.3030735,
      "type": "peak",
      "name": "Poggio dell'Agresto",
      "elevation": 301.0,
      "tags": {
        "ele": "301",
        "name": "Poggio dell'Agresto",
        "natural": "peak"
      }
    },
    {
      "id": 1436376872,
      "latitude": 43.1761765,
      "longitude": 11.3385958,
      "type": "peak",
      "name": "Poggio Cerrete",
      "elevation": 502.0,
      "tags": {
        "ele": "502",
        "name": "Poggio Cerrete",
        "natural": "peak",
        "wikidata": "Q31624338"
      }
    },
    {
      "id": 1436376873,
      "latitude": 43.1971,
      "longitude": 11.3055537,
      "type": "peak",
      "name": "Poggio Omomorto",
      "elevation": 296.0,
      "tags": {
        "ele": "296",
        "name": "Poggio Omomorto",
        "natural": "peak"
      }
    },
    {
      "id": 1436376874,
      "latitude": 43.1823376,
      "longitude": 11.3243784,
      "type": "peak",
      "name": "Poggio Orzoli",
      "elevation": 451.0,
      "tags": {
        "ele": "451",
        "name": "Poggio Orzoli",
        "natural": "peak"
      }
    },
    {
      "id": 1436376875,
      "latitude": 43.1952455,
      "longitude": 11.3088981,
      "type": "peak",
      "name": "Poggio Spugnano",
      "elevation": 266.0,
      "tags": {
        "ele": "266",
        "name": "Poggio Spugnano",
        "natural": "peak"
      }
    },
    {
      "id": 1436650594,
      "latitude": 43.1202807,
      "longitude": 11.3196858,
      "type": "peak",
      "name": "Poggio Casoli",
      "elevation": 303.0,
      "tags": {
        "ele": "303",
        "name": "Poggio Casoli",
        "natural": "peak"
      }
    },
    {
      "id": 1436650600,
      "latitude": 43.1308554,
      "longitude": 11.3134918,
      "type": "peak",
      "name": "Poggio al Piano",
      "elevation": 339.0,
      "tags": {
        "ele": "339",
        "name": "Poggio al Piano",
        "natural": "peak"
      }
    },
    {
      "id": 1436650601,
      "latitude": 43.1399659,
      "longitude": 11.3089523,
      "type": "peak",
      "name": "Poggio dell'Ombino",
      "elevation": 333.0,
      "tags": {
        "ele": "333",
        "name": "Poggio dell'Ombino",
        "natural": "peak"
      }
    },
    {
      "id": 1436650602,
      "latitude": 43.133383,
      "longitude": 11.3109353,
      "type": "peak",
      "name": "Poggio la Croce",
      "elevation": 332.0,
      "tags": {
        "ele": "332",
        "name": "Poggio la Croce",
        "natural": "peak"
      }
    },
    {
      "id": 1436685557,
      "latitude": 43.2138278,
      "longitude": 11.3067148,
      "type": "peak",
      "name": "Poggio al Lupo",
      "elevation": 365.0,
      "tags": {
        "ele": "365",
        "name": "Poggio al Lupo",
        "natural": "peak"
      }
    },
    {
      "id": 1448037213,
      "latitude": 43.2773212,
      "longitude": 11.1198046,
      "type": "peak",
      "name": "Poggio Cetinone",
      "elevation": 412.0,
      "tags": {
        "ele": "412",
        "name": "Poggio Cetinone",
        "natural": "peak"
      }
    },
    {
      "id": 1450687038,
      "latitude": 43.1879941,
      "longitude": 10.9926757,
      "type": "peak",
      "name": "Poggio Torricella",
      "elevation": 783.0,
      "tags": {
        "ele": "783",
        "name": "Poggio Torricella",
        "natural": "peak"
      }
    },
    {
      "id": 1450687039,
      "latitude": 43.1845324,
      "longitude": 10.9897881,
      "type": "peak",
      "name": "Poggio della Trave",
      "elevation": 854.0,
      "tags": {
        "ele": "854",
        "name": "Poggio della Trave",
        "natural": "peak"
      }
    },
    {
      "id": 1489941212,
      "latitude": 43.4231173,
      "longitude": 11.1236302,
      "type": "viewpoint",
      "name": null,
      "elevation": null,
      "tags": {
        "tourism": "viewpoint"
      }
    },
    {
      "id": 1505034595,
      "latitude": 43.0621128,
      "longitude": 11.2067109,
      "type": "peak",
      "name": "Monte Altarello",
      "elevation": 407.0,
      "tags": {
        "ele": "407",
        "name": "Monte Altarello",
        "natural": "peak"
      }
    },
    {
      "id": 1505034599,
      "latitude": 43.0772925,
      "longitude": 11.2311773,
      "type": "peak",
      "name": "Poggio Volpaio",
      "elevation": 532.0,
      "tags": {
        "ele": "532",
        "name": "Poggio Volpaio",
        "natural": "peak"
      }
    },
    {
      "id": 1505034603,
      "latitude": 43.0600359,
      "longitude": 11.2124304,
      "type": "peak",
      "name": "Poggio al Tesoro",
      "elevation": 411.0,
      "tags": {
        "ele": "411",
        "name": "Poggio al Tesoro",
        "natural": "peak"
      }
    },
    {
      "id": 1505078229,
      "latitude": 43.0498175,
      "longitude": 11.2181469,
      "type": "peak",
      "name": "Poggio Castelluccio",
      "elevation": 505.0,
      "tags": {
        "ele": "505",
        "name": "Poggio Castelluccio",
        "natural": "peak"
      }
    },
    {
      "id": 1505078231,
      "latitude": 43.0584748,
      "longitude": 11.2380757,
      "type": "peak",
      "name": "Poggio Chiesino",
      "elevation": 493.0,
      "tags": {
        "ele": "493",
        "name": "Poggio Chiesino",
        "natural": "peak"
      }
    },
    {
      "id": 1505078232,
      "latitude": 43.0552717,
      "longitude": 11.2127847,
      "type": "peak",
      "name": "Poggio Donna Morta",
      "elevation": 465.0,
      "tags": {
        "ele": "465",
        "name": "Poggio Donna Morta",
        "natural": "peak"
      }
    },
    {
      "id": 1505078234,
      "latitude": 43.0547633,
      "longitude": 11.1945106,
      "type": "peak",
      "name": "Poggio Sasso al Lupo",
      "elevation": 438.0,
      "tags": {
        "ele": "438",
        "name": "Poggio Sasso al Lupo",
        "natural": "peak"
      }
    },
    {
      "id": 1505078235,
      "latitude": 43.0543191,
      "longitude": 11.2345766,
      "type": "peak",
      "name": "Poggio Sugheretello",
      "elevation": 398.0,
      "tags": {
        "ele": "398",
        "name": "Poggio Sugheretello",
        "natural": "peak"
      }
    },
    {
      "id": 1505078237,
      "latitude": 43.0519141,
      "longitude": 11.2039222,
      "type": "peak",
      "name": "Poggio al Sugherone",
      "elevation": 483.0,
      "tags": {
        "ele": "483",
        "name": "Poggio al Sugherone",
        "natural": "peak"
      }
    },
    {
      "id": 1505078238,
      "latitude": 43.0653895,
      "longitude": 11.2231068,
      "type": "peak",
      "name": "Poggio alla Rigia",
      "elevation": 430.0,
      "tags": {
        "ele": "430",
        "name": "Poggio alla Rigia",
        "natural": "peak"
      }
    },
    {
      "id": 1505078239,
      "latitude": 43.044166,
      "longitude": 11.2407542,
      "type": "peak",
      "name": "Poggio la Pieve",
      "elevation": 431.0,
      "tags": {
        "ele": "431",
        "name": "Poggio la Pieve",
        "natural": "peak"
      }
    },
    {
      "id": 1505090065,
      "latitude": 43.0504513,
      "longitude": 11.2744976,
      "type": "peak",
      "name": "Colle Lungo",
      "elevation": 475.0,
      "tags": {
        "ele": "475",
        "name": "Colle Lungo",
        "natural": "peak"
      }
    },
    {
      "id": 1505090071,
      "latitude": 43.0589614,
      "longitude": 11.2905367,
      "type": "peak",
      "name": "Il Poggio",
      "elevation": 503.0,
      "tags": {
        "ele": "503",
        "name": "Il Poggio",
        "natural": "peak"
      }
    },
    {
      "id": 1505090077,
      "latitude": 43.0960959,
      "longitude": 11.2351641,
      "type": "peak",
      "name": "Monte Reio",
      "elevation": 372.0,
      "tags": {
        "ele": "372",
        "name": "Monte Reio",
        "natural": "peak"
      }
    },
    {
      "id": 1505090080,
      "latitude": 43.0583632,
      "longitude": 11.2503239,
      "type": "peak",
      "name": "Poggettone",
      "elevation": 359.0,
      "tags": {
        "ele": "359",
        "name": "Poggettone",
        "natural": "peak"
      }
    },
    {
      "id": 1505090084,
      "latitude": 43.0665012,
      "longitude": 11.2597083,
      "type": "peak",
      "name": "Poggi della Farneta",
      "elevation": 504.0,
      "tags": {
        "ele": "504",
        "name": "Poggi della Farneta",
        "natural": "peak"
      }
    },
    {
      "id": 1505090091,
      "latitude": 43.1098263,
      "longitude": 11.2307321,
      "type": "peak",
      "name": "Poggio Moverbia",
      "elevation": 528.0,
      "tags": {
        "ele": "528",
        "name": "Poggio Moverbia",
        "natural": "peak"
      }
    },
    {
      "id": 1505090097,
      "latitude": 43.0566209,
      "longitude": 11.2747189,
      "type": "peak",
      "name": "Poggio Ornate",
      "elevation": 473.0,
      "tags": {
        "ele": "473",
        "name": "Poggio Ornate",
        "natural": "peak"
      }
    },
    {
      "id": 1505090098,
      "latitude": 43.1058231,
      "longitude": 11.2330639,
      "type": "peak",
      "name": "Poggio Santuccio",
      "elevation": 435.0,
      "tags": {
        "ele": "435",
        "name": "Poggio Santuccio",
        "natural": "peak"
      }
    },
    {
      "id": 1505090100,
      "latitude": 43.0456706,
      "longitude": 11.2797453,
      "type": "peak",
      "name": "Poggio al Fungo",
      "elevation": 450.0,
      "tags": {
        "ele": "450",
        "name": "Poggio al Fungo",
        "natural": "peak"
      }
    },
    {
      "id": 1505090111,
      "latitude": 43.0708587,
      "longitude": 11.2522864,
      "type": "peak",
      "name": "Poggio al Perello",
      "elevation": 602.0,
      "tags": {
        "ele": "602",
        "name": "Poggio al Perello",
        "natural": "peak"
      }
    },
    {
      "id": 1505090112,
      "latitude": 43.0553173,
      "longitude": 11.2799303,
      "type": "peak",
      "name": "Poggio del Litti",
      "elevation": 460.0,
      "tags": {
        "ele": "460",
        "name": "Poggio del Litti",
        "natural": "peak"
      }
    },
    {
      "id": 1505090117,
      "latitude": 43.0655152,
      "longitude": 11.2770938,
      "type": "peak",
      "name": "Sassi di Siena",
      "elevation": 573.0,
      "tags": {
        "ele": "573",
        "name": "Sassi di Siena",
        "natural": "peak"
      }
    },
    {
      "id": 1505151217,
      "latitude": 43.0767189,
      "longitude": 11.2070532,
      "type": "peak",
      "name": "Poggio alla Lite",
      "elevation": 513.0,
      "tags": {
        "ele": "513",
        "name": "Poggio alla Lite",
        "natural": "peak"
      }
    },
    {
      "id": 1505151223,
      "latitude": 43.0807371,
      "longitude": 11.2047707,
      "type": "peak",
      "name": "Poggio le Macine",
      "elevation": 514.0,
      "tags": {
        "ele": "514",
        "name": "Poggio le Macine",
        "natural": "peak"
      }
    },
    {
      "id": 1505177304,
      "latitude": 43.0779686,
      "longitude": 11.1932375,
      "type": "peak",
      "name": "I Monti",
      "elevation": 562.0,
      "tags": {
        "ele": "562",
        "name": "I Monti",
        "natural": "peak"
      }
    },
    {
      "id": 1505177316,
      "latitude": 43.073981,
      "longitude": 11.1909128,
      "type": "peak",
      "name": "Il Violaio",
      "elevation": 541.0,
      "tags": {
        "ele": "541",
        "name": "Il Violaio",
        "natural": "peak"
      }
    },
    {
      "id": 1505177336,
      "latitude": 43.0874182,
      "longitude": 11.1973608,
      "type": "peak",
      "name": "Poggio Lecci",
      "elevation": 414.0,
      "tags": {
        "ele": "414",
        "name": "Poggio Lecci",
        "natural": "peak"
      }
    },
    {
      "id": 1505177345,
      "latitude": 43.0853824,
      "longitude": 11.1824874,
      "type": "peak",
      "name": "Poggio Ristonza",
      "elevation": 501.0,
      "tags": {
        "ele": "501",
        "name": "Poggio Ristonza",
        "natural": "peak"
      }
    },
    {
      "id": 1505177359,
      "latitude": 43.0958447,
      "longitude": 11.1884094,
      "type": "peak",
      "name": "Poggio al Carpino",
      "elevation": 527.0,
      "tags": {
        "ele": "527",
        "name": "Poggio al Carpino",
        "natural": "peak"
      }
    },
    {
      "id": 1505177362,
      "latitude": 43.0694383,
      "longitude": 11.1983454,
      "type": "peak",
      "name": "Poggio di Certile",
      "elevation": 487.0,
      "tags": {
        "ele": "487",
        "name": "Poggio di Certile",
        "natural": "peak"
      }
    },
    {
      "id": 1505202833,
      "latitude": 43.0770008,
      "longitude": 11.167761,
      "type": "peak",
      "name": "I Colli",
      "elevation": 339.0,
      "tags": {
        "ele": "339",
        "name": "I Colli",
        "natural": "peak"
      }
    },
    {
      "id": 1505202834,
      "latitude": 43.055442,
      "longitude": 11.1410965,
      "type": "peak",
      "name": "Monte Altino",
      "elevation": 727.0,
      "tags": {
        "ele": "727",
        "name": "Monte Altino",
        "natural": "peak"
      }
    },
    {
      "id": 1505202835,
      "latitude": 43.0471022,
      "longitude": 11.1417066,
      "type": "peak",
      "name": "Monte Alto",
      "elevation": 795.0,
      "tags": {
        "ele": "795",
        "name": "Monte Alto",
        "natural": "peak",
        "wikidata": "Q31627366"
      }
    },
    {
      "id": 1505202837,
      "latitude": 43.0508303,
      "longitude": 11.1414752,
      "type": "peak",
      "name": "Poggio al Romito",
      "elevation": 737.0,
      "tags": {
        "ele": "737",
        "name": "Poggio al Romito",
        "natural": "peak"
      }
    },
    {
      "id": 1505219299,
      "latitude": 43.0941833,
      "longitude": 11.1459146,
      "type": "peak",
      "name": "Poggio Lutteri",
      "elevation": 515.0,
      "tags": {
        "ele": "515",
        "name": "Poggio Lutteri",
        "natural": "peak"
      }
    },
    {
      "id": 1505219302,
      "latitude": 43.0915842,
      "longitude": 11.131834,
      "type": "peak",
      "name": "Poggio alle Capanne",
      "elevation": 455.0,
      "tags": {
        "ele": "455",
        "name": "Poggio alle Capanne",
        "natural": "peak"
      }
    },
    {
      "id": 1505321252,
      "latitude": 43.069498,
      "longitude": 11.1179702,
      "type": "peak",
      "name": "Colle Pado",
      "elevation": 439.0,
      "tags": {
        "ele": "439",
        "name": "Colle Pado",
        "natural": "peak"
      }
    },
    {
      "id": 1505321261,
      "latitude": 43.0824102,
      "longitude": 11.0620086,
      "type": "peak",
      "name": "Colle dei Cerri Vieti",
      "elevation": 578.0,
      "tags": {
        "ele": "578",
        "name": "Colle dei Cerri Vieti",
        "natural": "peak"
      }
    },
    {
      "id": 1505321268,
      "latitude": 43.0725007,
      "longitude": 11.0727599,
      "type": "peak",
      "name": "Il Monte",
      "elevation": 563.0,
      "tags": {
        "ele": "563",
        "name": "Il Monte",
        "natural": "peak"
      }
    },
    {
      "id": 1505321274,
      "latitude": 43.0762904,
      "longitude": 11.1136146,
      "type": "peak",
      "name": "La Pietra",
      "elevation": 439.0,
      "tags": {
        "ele": "439",
        "name": "La Pietra",
        "natural": "peak"
      }
    },
    {
      "id": 1505321282,
      "latitude": 43.0816967,
      "longitude": 11.1017206,
      "type": "peak",
      "name": "Poggio Alto",
      "elevation": 511.0,
      "tags": {
        "ele": "511",
        "name": "Poggio Alto",
        "natural": "peak"
      }
    },
    {
      "id": 1505321286,
      "latitude": 43.069852,
      "longitude": 11.0668772,
      "type": "peak",
      "name": "Poggio Atroni",
      "elevation": 567.0,
      "tags": {
        "ele": "567",
        "name": "Poggio Atroni",
        "natural": "peak"
      }
    },
    {
      "id": 1505321297,
      "latitude": 43.0803141,
      "longitude": 11.0479199,
      "type": "peak",
      "name": "Poggio Braccino",
      "elevation": 599.0,
      "tags": {
        "ele": "599",
        "name": "Poggio Braccino",
        "natural": "peak"
      }
    },
    {
      "id": 1505321301,
      "latitude": 43.101447,
      "longitude": 11.0553347,
      "type": "peak",
      "name": "Poggio Montecchio",
      "elevation": 661.0,
      "tags": {
        "ele": "661",
        "name": "Poggio Montecchio",
        "natural": "peak"
      }
    },
    {
      "id": 1505321304,
      "latitude": 43.0785881,
      "longitude": 11.0854549,
      "type": "peak",
      "name": "Poggio Ricavolo",
      "elevation": 538.0,
      "tags": {
        "ele": "538",
        "name": "Poggio Ricavolo",
        "natural": "peak"
      }
    },
    {
      "id": 1505321316,
      "latitude": 43.0594564,
      "longitude": 11.1328858,
      "type": "peak",
      "name": "Poggio al Vecchio",
      "elevation": 588.0,
      "tags": {
        "ele": "588",
        "name": "Poggio al Vecchio",
        "natural": "peak"
      }
    },
    {
      "id": 1505321326,
      "latitude": 43.0988338,
      "longitude": 11.0907133,
      "type": "peak",
      "name": "Poggio alle Tagliate",
      "elevation": 609.0,
      "tags": {
        "ele": "609",
        "name": "Poggio alle Tagliate",
        "natural": "peak"
      }
    },
    {
      "id": 1505321337,
      "latitude": 43.0970994,
      "longitude": 11.1175858,
      "type": "peak",
      "name": "Poggio delle Mandriacce",
      "elevation": 458.0,
      "tags": {
        "ele": "458",
        "name": "Poggio delle Mandriacce",
        "natural": "peak"
      }
    },
    {
      "id": 1505321353,
      "latitude": 43.0664227,
      "longitude": 11.1449824,
      "type": "peak",
      "name": "Poggio il Monte",
      "elevation": 559.0,
      "tags": {
        "ele": "559",
        "name": "Poggio il Monte",
        "natural": "peak"
      }
    },
    {
      "id": 1505473033,
      "latitude": 43.0644419,
      "longitude": 11.1049519,
      "type": "peak",
      "name": "Colle Lungo",
      "elevation": 482.0,
      "tags": {
        "ele": "482",
        "name": "Colle Lungo",
        "natural": "peak"
      }
    },
    {
      "id": 1505473034,
      "latitude": 43.0526718,
      "longitude": 11.0750098,
      "type": "peak",
      "name": "Il Poggettone",
      "elevation": 473.0,
      "tags": {
        "ele": "473",
        "name": "Il Poggettone",
        "natural": "peak"
      }
    },
    {
      "id": 1505473036,
      "latitude": 43.0602831,
      "longitude": 11.1143809,
      "type": "peak",
      "name": "Monte alle Legna",
      "elevation": 474.0,
      "tags": {
        "ele": "474",
        "name": "Monte alle Legna",
        "natural": "peak"
      }
    },
    {
      "id": 1505473044,
      "latitude": 43.04669,
      "longitude": 11.1114923,
      "type": "peak",
      "name": "Poggetto alla Vedova",
      "elevation": 520.0,
      "tags": {
        "ele": "520",
        "name": "Poggetto alla Vedova",
        "natural": "peak"
      }
    },
    {
      "id": 1505473047,
      "latitude": 43.0349482,
      "longitude": 11.0937428,
      "type": "peak",
      "name": "Poggio Cacciagallo",
      "elevation": 751.0,
      "tags": {
        "ele": "751",
        "name": "Poggio Cacciagallo",
        "natural": "peak"
      }
    },
    {
      "id": 1505473050,
      "latitude": 43.0567449,
      "longitude": 11.0956263,
      "type": "peak",
      "name": "Poggio Cornecchi",
      "elevation": 560.0,
      "tags": {
        "ele": "560",
        "name": "Poggio Cornecchi",
        "natural": "peak"
      }
    },
    {
      "id": 1505473064,
      "latitude": 43.0453081,
      "longitude": 11.126064,
      "type": "peak",
      "name": "Poggio Laghetto",
      "elevation": 497.0,
      "tags": {
        "ele": "497",
        "name": "Poggio Laghetto",
        "natural": "peak"
      }
    },
    {
      "id": 1505473067,
      "latitude": 43.0548806,
      "longitude": 11.0450295,
      "type": "peak",
      "name": "Poggio Mariannino",
      "elevation": 523.0,
      "tags": {
        "ele": "523",
        "name": "Poggio Mariannino",
        "natural": "peak"
      }
    },
    {
      "id": 1505473068,
      "latitude": 43.0427808,
      "longitude": 11.0826064,
      "type": "peak",
      "name": "Poggio Mozzeta",
      "elevation": 609.0,
      "tags": {
        "ele": "609",
        "name": "Poggio Mozzeta",
        "natural": "peak"
      }
    },
    {
      "id": 1505473069,
      "latitude": 43.0401839,
      "longitude": 11.1201213,
      "type": "peak",
      "name": "Poggio Pianelle",
      "elevation": 512.0,
      "tags": {
        "ele": "512",
        "name": "Poggio Pianelle",
        "natural": "peak"
      }
    },
    {
      "id": 1505473079,
      "latitude": 43.0642731,
      "longitude": 11.1144914,
      "type": "peak",
      "name": "Poggio Sciamarcello",
      "elevation": 459.0,
      "tags": {
        "ele": "459",
        "name": "Poggio Sciamarcello",
        "natural": "peak"
      }
    },
    {
      "id": 1505473082,
      "latitude": 43.0601801,
      "longitude": 11.0349989,
      "type": "peak",
      "name": "Poggio Ventoso",
      "elevation": 533.0,
      "tags": {
        "ele": "533",
        "name": "Poggio Ventoso",
        "natural": "peak"
      }
    },
    {
      "id": 1505473084,
      "latitude": 43.0386335,
      "longitude": 11.1375428,
      "type": "peak",
      "name": "Poggio ai Tuoni",
      "elevation": 732.0,
      "tags": {
        "ele": "732",
        "name": "Poggio ai Tuoni",
        "natural": "peak"
      }
    },
    {
      "id": 1505473096,
      "latitude": 43.0455883,
      "longitude": 11.1135483,
      "type": "peak",
      "name": "Poggio al Castagno",
      "elevation": 561.0,
      "tags": {
        "ele": "561",
        "name": "Poggio al Castagno",
        "natural": "peak"
      }
    },
    {
      "id": 1505473102,
      "latitude": 43.0393736,
      "longitude": 11.0890159,
      "type": "peak",
      "name": "Poggio alle Miniere",
      "elevation": 682.0,
      "tags": {
        "ele": "682",
        "name": "Poggio alle Miniere",
        "natural": "peak"
      }
    },
    {
      "id": 1507180977,
      "latitude": 43.1536811,
      "longitude": 11.3543522,
      "type": "peak",
      "name": "Le Piaggette",
      "elevation": 349.0,
      "tags": {
        "ele": "349",
        "name": "Le Piaggette",
        "natural": "peak",
        "place": "locality"
      }
    },
    {
      "id": 1507180979,
      "latitude": 43.1498786,
      "longitude": 11.3334858,
      "type": "peak",
      "name": "Monte Cucco",
      "elevation": 429.0,
      "tags": {
        "ele": "429",
        "name": "Monte Cucco",
        "natural": "peak"
      }
    },
    {
      "id": 1507180983,
      "latitude": 43.1327808,
      "longitude": 11.3593518,
      "type": "peak",
      "name": "Monte Moro",
      "elevation": 321.0,
      "tags": {
        "ele": "321",
        "name": "Monte Moro",
        "natural": "peak"
      }
    },
    {
      "id": 1507180988,
      "latitude": 43.1549409,
      "longitude": 11.3601892,
      "type": "peak",
      "name": "Monte Verdello",
      "elevation": 354.0,
      "tags": {
        "ele": "354",
        "name": "Monte Verdello",
        "natural": "peak"
      }
    },
    {
      "id": 1507180993,
      "latitude": 43.1424319,
      "longitude": 11.3428577,
      "type": "peak",
      "name": "Poggio Abbu'",
      "elevation": 468.0,
      "tags": {
        "ele": "468",
        "name": "Poggio Abbu'",
        "natural": "peak"
      }
    },
    {
      "id": 1507180996,
      "latitude": 43.1243592,
      "longitude": 11.3538736,
      "type": "peak",
      "name": "Poggio Albatrini",
      "elevation": 276.0,
      "tags": {
        "ele": "276",
        "name": "Poggio Albatrini",
        "natural": "peak"
      }
    },
    {
      "id": 1507181001,
      "latitude": 43.1401188,
      "longitude": 11.3496374,
      "type": "peak",
      "name": "Poggio Boschettino",
      "elevation": 392.0,
      "tags": {
        "ele": "392",
        "name": "Poggio Boschettino",
        "natural": "peak"
      }
    },
    {
      "id": 1507181003,
      "latitude": 43.1102668,
      "longitude": 11.3286712,
      "type": "peak",
      "name": "Poggio Castello",
      "elevation": 243.0,
      "tags": {
        "ele": "243",
        "name": "Poggio Castello",
        "natural": "peak"
      }
    },
    {
      "id": 1507181004,
      "latitude": 43.1358347,
      "longitude": 11.3174714,
      "type": "peak",
      "name": "Poggio Celandria",
      "elevation": 328.0,
      "tags": {
        "ele": "328",
        "name": "Poggio Celandria",
        "natural": "peak"
      }
    },
    {
      "id": 1507181017,
      "latitude": 43.0980762,
      "longitude": 11.3765688,
      "type": "peak",
      "name": "Poggio Conventaccio",
      "elevation": 211.0,
      "tags": {
        "ele": "211",
        "name": "Poggio Conventaccio",
        "natural": "peak"
      }
    },
    {
      "id": 1507181024,
      "latitude": 43.137494,
      "longitude": 11.3655323,
      "type": "peak",
      "name": "Poggio Degano",
      "elevation": 299.3,
      "tags": {
        "ele": "299.3",
        "name": "Poggio Degano",
        "natural": "peak"
      }
    },
    {
      "id": 1507181025,
      "latitude": 43.1420649,
      "longitude": 11.3394193,
      "type": "peak",
      "name": "Poggio Meta",
      "elevation": 483.0,
      "tags": {
        "ele": "483",
        "name": "Poggio Meta",
        "natural": "peak"
      }
    },
    {
      "id": 1507181029,
      "latitude": 43.1658365,
      "longitude": 11.3492321,
      "type": "peak",
      "name": "Poggio a Marco",
      "elevation": 460.0,
      "tags": {
        "ele": "460",
        "name": "Poggio a Marco",
        "natural": "peak"
      }
    },
    {
      "id": 1507181044,
      "latitude": 43.1713462,
      "longitude": 11.3452087,
      "type": "peak",
      "name": "Poggio alle Monache",
      "elevation": 504.0,
      "tags": {
        "ele": "504",
        "name": "Poggio alle Monache",
        "natural": "peak"
      }
    },
    {
      "id": 1507181048,
      "latitude": 43.138073,
      "longitude": 11.3470967,
      "type": "peak",
      "name": "Poggio del Crocino",
      "elevation": 426.0,
      "tags": {
        "ele": "426",
        "name": "Poggio del Crocino",
        "natural": "peak"
      }
    },
    {
      "id": 1507181053,
      "latitude": 43.1024202,
      "longitude": 11.357518,
      "type": "peak",
      "name": "Poggio il Galletto",
      "elevation": 178.0,
      "tags": {
        "ele": "178",
        "name": "Poggio il Galletto",
        "natural": "peak"
      }
    },
    {
      "id": 1507181057,
      "latitude": 43.1328577,
      "longitude": 11.3697047,
      "type": "peak",
      "name": "Poggio le Carraie",
      "elevation": 303.0,
      "tags": {
        "ele": "303",
        "name": "Poggio le Carraie",
        "natural": "peak"
      }
    },
    {
      "id": 1507181063,
      "latitude": 43.1005355,
      "longitude": 11.368928,
      "type": "peak",
      "name": "Poggio Occareto",
      "elevation": 246.0,
      "tags": {
        "ele": "246",
        "name": "Poggio Occareto",
        "natural": "peak"
      }
    },
    {
      "id": 1507286292,
      "latitude": 43.1411559,
      "longitude": 11.3716649,
      "type": "peak",
      "name": "Poggio Serpentaio",
      "elevation": 323.0,
      "tags": {
        "ele": "323",
        "name": "Poggio Serpentaio",
        "natural": "peak"
      }
    },
    {
      "id": 1507286298,
      "latitude": 43.1184445,
      "longitude": 11.3778069,
      "type": "peak",
      "name": "Poggio ai Leccioni",
      "elevation": 251.0,
      "tags": {
        "ele": "251",
        "name": "Poggio ai Leccioni",
        "natural": "peak"
      }
    },
    {
      "id": 1507424222,
      "latitude": 43.2001762,
      "longitude": 11.2868239,
      "type": "peak",
      "name": "Il Monte",
      "elevation": 333.0,
      "tags": {
        "ele": "333",
        "name": "Il Monte",
        "natural": "peak"
      }
    },
    {
      "id": 1507424225,
      "latitude": 43.0902489,
      "longitude": 11.3743854,
      "type": "peak",
      "name": "Poggio Leccetina",
      "elevation": 204.0,
      "tags": {
        "ele": "204",
        "name": "Poggio Leccetina",
        "natural": "peak"
      }
    },
    {
      "id": 1507565440,
      "latitude": 43.2676853,
      "longitude": 11.1981575,
      "type": "peak",
      "name": "I Poggetti",
      "elevation": 503.0,
      "tags": {
        "ele": "503",
        "name": "I Poggetti",
        "natural": "peak"
      }
    },
    {
      "id": 1507565441,
      "latitude": 43.2656259,
      "longitude": 11.2599055,
      "type": "peak",
      "name": "Poggio alle Lame",
      "elevation": 209.0,
      "tags": {
        "ele": "209",
        "name": "Poggio alle Lame",
        "natural": "peak"
      }
    },
    {
      "id": 1507565442,
      "latitude": 43.3322142,
      "longitude": 11.2084175,
      "type": "peak",
      "name": "Poggio Campacci",
      "elevation": 521.0,
      "tags": {
        "ele": "521",
        "name": "Poggio Campacci",
        "natural": "peak"
      }
    },
    {
      "id": 1507565447,
      "latitude": 43.3317597,
      "longitude": 11.2118167,
      "type": "peak",
      "name": "Poggio le Pietraie",
      "elevation": 515.0,
      "tags": {
        "ele": "515",
        "name": "Poggio le Pietraie",
        "natural": "peak"
      }
    },
    {
      "id": 1507627869,
      "latitude": 43.2266138,
      "longitude": 11.2022355,
      "type": "peak",
      "name": "Poggio Pescine",
      "elevation": 480.0,
      "tags": {
        "ele": "480",
        "name": "Poggio Pescine",
        "natural": "peak"
      }
    },
    {
      "id": 1507627870,
      "latitude": 43.2380686,
      "longitude": 11.1480547,
      "type": "peak",
      "name": "Poggio alle Tavole",
      "elevation": 473.0,
      "tags": {
        "ele": "473",
        "name": "Poggio alle Tavole",
        "natural": "peak"
      }
    },
    {
      "id": 1507680586,
      "latitude": 43.3325019,
      "longitude": 11.1345771,
      "type": "peak",
      "name": "Poggio Castiglioni",
      "elevation": 321.0,
      "tags": {
        "ele": "321",
        "name": "Poggio Castiglioni",
        "natural": "peak"
      }
    },
    {
      "id": 1507680587,
      "latitude": 43.2668055,
      "longitude": 11.0958014,
      "type": "peak",
      "name": "Poggio Cerretino",
      "elevation": 607.8,
      "tags": {
        "ele": "607.8",
        "name": "Poggio Cerretino",
        "natural": "peak"
      }
    },
    {
      "id": 1507680588,
      "latitude": 43.3231488,
      "longitude": 11.1254195,
      "type": "peak",
      "name": "Poggio Gineprone",
      "elevation": 289.0,
      "tags": {
        "ele": "289",
        "name": "Poggio Gineprone",
        "natural": "peak"
      }
    },
    {
      "id": 1507680591,
      "latitude": 43.3288477,
      "longitude": 11.122182,
      "type": "peak",
      "name": "Poggio Meleto",
      "elevation": 270.0,
      "tags": {
        "ele": "270",
        "name": "Poggio Meleto",
        "natural": "peak"
      }
    },
    {
      "id": 1507680596,
      "latitude": 43.3271875,
      "longitude": 11.1131398,
      "type": "peak",
      "name": "Poggio Peia",
      "elevation": 262.0,
      "tags": {
        "ele": "262",
        "name": "Poggio Peia",
        "natural": "peak"
      }
    },
    {
      "id": 1507680600,
      "latitude": 43.2918258,
      "longitude": 11.1358392,
      "type": "peak",
      "name": "Poggio a Gattero",
      "elevation": 420.0,
      "tags": {
        "ele": "420",
        "name": "Poggio a Gattero",
        "natural": "peak"
      }
    },
    {
      "id": 1507680604,
      "latitude": 43.3198382,
      "longitude": 11.1162177,
      "type": "peak",
      "name": "Poggione",
      "elevation": 289.0,
      "tags": {
        "ele": "289",
        "name": "Poggione",
        "natural": "peak"
      }
    },
    {
      "id": 1509618498,
      "latitude": 43.3208197,
      "longitude": 11.0482184,
      "type": "peak",
      "name": "Il Poggione",
      "elevation": 336.0,
      "tags": {
        "ele": "336",
        "name": "Il Poggione",
        "natural": "peak"
      }
    },
    {
      "id": 1509618499,
      "latitude": 43.3466722,
      "longitude": 11.06415,
      "type": "peak",
      "name": "Poggio Colonna",
      "elevation": 294.0,
      "tags": {
        "ele": "294",
        "name": "Poggio Colonna",
        "natural": "peak"
      }
    },
    {
      "id": 1509618500,
      "latitude": 43.3027886,
      "longitude": 11.0908448,
      "type": "peak",
      "name": "Poggio Marino",
      "elevation": 283.0,
      "tags": {
        "ele": "283",
        "name": "Poggio Marino",
        "natural": "peak"
      }
    },
    {
      "id": 1509618502,
      "latitude": 43.3593964,
      "longitude": 11.0760595,
      "type": "peak",
      "name": "Poggio delle Sassete",
      "elevation": 297.0,
      "tags": {
        "ele": "297",
        "name": "Poggio delle Sassete",
        "natural": "peak"
      }
    },
    {
      "id": 1509618504,
      "latitude": 43.3605238,
      "longitude": 11.0850603,
      "type": "peak",
      "name": "Poggio di Caio",
      "elevation": null,
      "tags": {
        "name": "Poggio di Caio",
        "natural": "peak"
      }
    },
    {
      "id": 1511638425,
      "latitude": 43.3718094,
      "longitude": 11.0221972,
      "type": "peak",
      "name": "Poggio Leccioni",
      "elevation": 392.0,
      "tags": {
        "ele": "392",
        "name": "Poggio Leccioni",
        "natural": "peak"
      }
    },
    {
      "id": 1511638441,
      "latitude": 43.3625908,
      "longitude": 11.0324185,
      "type": "peak",
      "name": "Poggio le Forche",
      "elevation": 380.0,
      "tags": {
        "ele": "380",
        "name": "Poggio le Forche",
        "natural": "peak"
      }
    },
    {
      "id": 1511719317,
      "latitude": 43.4620202,
      "longitude": 11.1507604,
      "type": "peak",
      "name": "Poggio Imperiale",
      "elevation": 199.0,
      "tags": {
        "ele": "199",
        "name": "Poggio Imperiale",
        "natural": "peak"
      }
    },
    {
      "id": 1511719323,
      "latitude": 43.4341309,
      "longitude": 11.1687885,
      "type": "peak",
      "name": "Poggio Pini",
      "elevation": 223.0,
      "tags": {
        "ele": "223",
        "name": "Poggio Pini",
        "natural": "peak"
      }
    },
    {
      "id": 1511719330,
      "latitude": 43.4415762,
      "longitude": 11.1468199,
      "type": "peak",
      "name": "Poggio Tondo",
      "elevation": 213.7,
      "tags": {
        "ele": "213.7",
        "name": "Poggio Tondo",
        "natural": "peak"
      }
    },
    {
      "id": 1512083058,
      "latitude": 43.4797364,
      "longitude": 11.2754585,
      "type": "peak",
      "name": "Poggio Fulvo",
      "elevation": 631.0,
      "tags": {
        "ele": "631",
        "name": "Poggio Fulvo",
        "natural": "peak"
      }
    },
    {
      "id": 1512083063,
      "latitude": 43.4814113,
      "longitude": 11.1914903,
      "type": "peak",
      "name": "Poggio Leccia",
      "elevation": 309.0,
      "tags": {
        "ele": "309",
        "name": "Poggio Leccia",
        "natural": "peak"
      }
    },
    {
      "id": 1512083067,
      "latitude": 43.4784864,
      "longitude": 11.2691182,
      "type": "peak",
      "name": "Poggio Macia Morta",
      "elevation": 625.0,
      "tags": {
        "ele": "625",
        "name": "Poggio Macia Morta",
        "natural": "peak"
      }
    },
    {
      "id": 1512083070,
      "latitude": 43.4831612,
      "longitude": 11.179689,
      "type": "peak",
      "name": "Poggio Massiccioli",
      "elevation": 265.0,
      "tags": {
        "ele": "265",
        "name": "Poggio Massiccioli",
        "natural": "peak"
      }
    },
    {
      "id": 1512083074,
      "latitude": 43.4877369,
      "longitude": 11.1880326,
      "type": "peak",
      "name": "Poggio a Massi",
      "elevation": 290.0,
      "tags": {
        "ele": "290",
        "name": "Poggio a Massi",
        "natural": "peak"
      }
    },
    {
      "id": 1512083076,
      "latitude": 43.4766529,
      "longitude": 11.1654094,
      "type": "peak",
      "name": "Poggio ai Frati",
      "elevation": 243.0,
      "tags": {
        "alt_name": "Poggio a Frati",
        "ele": "243",
        "name": "Poggio ai Frati",
        "natural": "peak"
      }
    },
    {
      "id": 1516474810,
      "latitude": 43.4893909,
      "longitude": 11.2617125,
      "type": "peak",
      "name": "Poggio Auzzo",
      "elevation": 610.0,
      "tags": {
        "ele": "610",
        "name": "Poggio Auzzo",
        "natural": "peak"
      }
    },
    {
      "id": 1516474824,
      "latitude": 43.4949308,
      "longitude": 11.2600254,
      "type": "peak",
      "name": "Poggio di Ricavo",
      "elevation": 594.0,
      "tags": {
        "ele": "594",
        "name": "Poggio di Ricavo",
        "natural": "peak"
      }
    },
    {
      "id": 1516580179,
      "latitude": 43.5099785,
      "longitude": 11.1804817,
      "type": "peak",
      "name": "Poggio di Macericca",
      "elevation": 371.0,
      "tags": {
        "ele": "371",
        "name": "Poggio di Macericca",
        "natural": "peak"
      }
    },
    {
      "id": 1516825981,
      "latitude": 43.3249373,
      "longitude": 11.3775373,
      "type": "peak",
      "name": "Colle Pinzuto",
      "elevation": 274.0,
      "tags": {
        "ele": "274.0",
        "name": "Colle Pinzuto",
        "natural": "peak"
      }
    },
    {
      "id": 1516862998,
      "latitude": 43.4794983,
      "longitude": 11.2905717,
      "type": "peak",
      "name": "Poggio Amorelli",
      "elevation": 611.0,
      "tags": {
        "ele": "611",
        "name": "Poggio Amorelli",
        "natural": "peak"
      }
    },
    {
      "id": 1517258985,
      "latitude": 43.1918336,
      "longitude": 11.3453199,
      "type": "peak",
      "name": "Poggio Cucco",
      "elevation": 375.0,
      "tags": {
        "ele": "375",
        "name": "Poggio Cucco",
        "natural": "peak"
      }
    },
    {
      "id": 1517258989,
      "latitude": 43.1891917,
      "longitude": 11.3364435,
      "type": "peak",
      "name": "Poggio alle Verdi",
      "elevation": 408.0,
      "tags": {
        "ele": "408",
        "name": "Poggio alle Verdi",
        "natural": "peak"
      }
    },
    {
      "id": 1517260010,
      "latitude": 43.1916014,
      "longitude": 11.355127,
      "type": "peak",
      "name": "Poggio Leccetone",
      "elevation": 391.0,
      "tags": {
        "ele": "391",
        "name": "Poggio Leccetone",
        "natural": "peak"
      }
    },