Name,Typ,Adresse,Latitude,Longitude,Elevation,Entfernung_m
Stulle Plus,restaurant,Adresse unbekannt,53.549661,10.025379,,292
La Malême,cafe,Adresse unbekannt,53.553123,10.023190,,290
Novo2,restaurant,Adresse unbekannt,53.558961,10.025303,,71
bistro fresh,cafe,Adresse unbekannt,53.556625,10.025095,,145
Drinking_water,drinking_water,Adresse unbekannt,53.553259,10.024036,,201
Sushi Company,restaurant,Adresse unbekannt,53.560273,10.025759,,8
Goldherz,cafe,"Hartwicusstraße, 20, 22087, Hamburg",53.566258,10.024518,,53
Dat Backhus,bakery,Adresse unbekannt,53.563959,10.023713,,81
The Noodle House,restaurant,"Ifflandstraße, 92, 22087",53.563607,10.024105,,60
Baris,restaurant,"Lerchenfeld, 48, 22081, Hamburg",53.570002,10.027922,,22
Inos,restaurant,"Finkenau, 1, 22081",53.571335,10.030269,,24
Il Nonnino,restaurant,"Mundsburger Damm, 45, 22087, Hamburg",53.568395,10.023682,,249
PENNY,supermarket,"Hamburger Straße, 1, 22083",53.570898,10.027734,,67
Surimex Cafe Bistro,cafe,Adresse unbekannt,53.568065,10.023119,,282
Pedalross,bicycle,"Mundsburger Damm, 58, 22087, Hamburg",53.569233,10.025734,,123
Schanzenbäckerei,bakery,Adresse unbekannt,53.569393,10.027519,,41
Flickenschildt,restaurant,"Mundsburger Damm, 63, 22087, Hamburg",53.570053,10.026189,,167
Asiatische Lebensmittel KIM,supermarket,Adresse unbekannt,53.567980,10.022930,,296
Schanzenbäckerei,bakery,Adresse unbekannt,53.570602,10.027129,,83
Bodega Sesenta,restaurant,"Mundsburger Damm, 60, 22087, Hamburg",53.569382,10.026191,,110
Morgenstund,bakery,Adresse unbekannt,53.567390,10.022953,,266
Osho Ayu-Leela,restaurant,Adresse unbekannt,53.568148,10.023257,,273
illy,cafe,Adresse unbekannt,53.571773,10.028735,,94
Double Coffee,cafe,Adresse unbekannt,53.570093,10.026264,,159
Albatros Café,cafe,"Wagnerstraße, 5",53.574867,10.036775,,74
Dat Backhus,bakery,Adresse unbekannt,53.574454,10.037185,,138
Ahoi Velo (Neuradmontage und Abholung),bicycle,"Wagnerstraße, 16-18, 22081, Hamburg",53.574139,10.036112,,93
Mantu,restaurant,Adresse unbekannt,53.573628,10.031937,,99
Malik Marokkanischer Supermarkt,supermarket,Adresse unbekannt,53.575001,10.036518,,43
Los Damas,restaurant,"Hamburger Straße, 17-49",53.574137,10.033116,,74
Schweinske Barmbek,restaurant,"Barmbeker Markt, 19, 22081, Hamburg",53.582237,10.043495,,227
Falafel Factory,restaurant,"Barmbeker Markt, 40, 22081, Hamburg",53.579506,10.040883,,15
Asia Supermarket,supermarket,Adresse unbekannt,53.579965,10.041836,,45
Goldener Drache,restaurant,Adresse unbekannt,53.578016,10.038539,,43
Daube,bakery,"Dehnhaide, 6, 22081, Hamburg",53.579169,10.041783,,70
Daube,bakery,"Hamburger Straße, 206, 22083, Hamburg",53.579265,10.040115,,24
Konditorei Ulrich Münch,cafe,"Weidestraße, 26, 22083, Hamburg",53.580460,10.037421,,297
Räderei Hamburg,bicycle,"Weidestraße, 18, 22083, Hamburg",53.580442,10.038328,,213
re.cycle Barmbek,bicycle,"Hamburger Straße, 200, 22083, Hamburg",53.579002,10.039967,,27
Asia Imbiss,restaurant,Adresse unbekannt,53.579135,10.041861,,78
Đỗ Quán,restaurant,"Dehnhaide, 12, 22081, Hamburg",53.579009,10.042433,,132
PENNY,supermarket,Adresse unbekannt,53.578622,10.039663,,22
Rüya,restaurant,Adresse unbekannt,53.579462,10.040775,,22
LüttLiv,restaurant,"Maurienstraße, 19, 22305, Hamburg",53.585780,10.044912,,269
T.R.U.D.E.,restaurant,"Maurienstraße, 13, 22305, Hamburg",53.585002,10.045094,,289
von Allwörden,bakery,Adresse unbekannt,53.587033,10.044064,,251
Oktober,restaurant,"Wiesendamm, 10, 22305, Hamburg",53.587441,10.041079,,42
Denns BioMarkt,supermarket,"Massaquoipassage, 5, 22305, Hamburg",53.588433,10.044643,,240
Kentauros,restaurant,"Wiesendamm, 41, 22305, Hamburg",53.587084,10.038743,,295
ALDI,supermarket,"Krüsistraße, 7, 22305, Hamburg",53.587966,10.044835,,287
REWE,supermarket,"Krüsistraße, 7, 22305, Hamburg",53.588049,10.044851,,283
EDEKA,supermarket,"Fuhlsbüttler Straße, 188, 22307, Hamburg",53.594347,10.044450,,41
Dallmeyers Backhus,bakery,"Fuhlsbüttler Straße, 188, 22307, Hamburg",53.594460,10.044387,,38
Lidl,supermarket,"Fuhlsbüttler Straße, 184, 22307, Hamburg",53.594139,10.044527,,42
Nur Hier,bakery,"Fuhlsbüttler Straße, 107-109, 22305, Hamburg",53.588840,10.045310,,278
Lezzet,restaurant,"Fuhlsbüttler Straße, 173, 22307, Hamburg",53.594283,10.043784,,31
Nur Bazar,supermarket,"Fuhlsbüttler Straße, 174, 22305, Hamburg",53.592738,10.044557,,29
Kleines Glück,restaurant,"Fuhlsbüttler Straße, 181, 22307, Hamburg",53.595156,10.043484,,30
Onur,supermarket,"Fuhlsbüttler Straße, 125-127, 22305, Hamburg",53.590305,10.044687,,123
BLOCK HOUSE,restaurant,"Fuhlsbüttler Straße, 165, 22307, Hamburg",53.593187,10.043929,,41
bioMarkt Barmbek,supermarket,"Fuhlsbüttler Straße, 164, 22305, Hamburg",53.591875,10.044575,,31
Rohlfs Bäckerei,bakery,"Fuhlsbüttler Straße, 177, 22307, Hamburg",53.594627,10.043658,,32
Daily Asia,supermarket,Adresse unbekannt,53.590578,10.044542,,90
Indian Temple,restaurant,"Fuhlsbüttler Straße, 159, 22305, Hamburg",53.592411,10.043956,,33
DO Friends,restaurant,"Fuhlsbüttler Straße, 151, 22305, Hamburg",53.591855,10.043871,,43
Fils D'or Markt,supermarket,"Fuhlsbüttler Straße, 151, 22305, Hamburg",53.591979,10.043906,,36
Junge,bakery,"Fuhlsbüttler Straße, 149, 22305, Hamburg",53.591750,10.043850,,42
Ihr Backshop,bakery,"Fuhlsbüttler Straße, 169, 22307, Hamburg",53.593689,10.043904,,36
Mosaic,cafe,"Fuhlsbüttler Straße, 176, 22307, Hamburg",53.593211,10.044603,,33
Amadeus,restaurant,"Fuhlsbüttler Straße, 113, 22305, Hamburg",53.589293,10.045147,,236
New Balochistan Barmbek,restaurant,"Fuhlsbüttler Straße, 172a, 22305, Hamburg",53.592340,10.044522,,29
Simit Factory,cafe,Adresse unbekannt,53.590225,10.044713,,132
Leontes,cafe,"Fuhlsbüttler Straße, 116, 22305, Hamburg",53.589430,10.045747,,260
Copenhagen Coffee Lab,cafe,"Fuhlsbüttler Straße, 132, 22305, Hamburg",53.590506,10.045183,,127
Fahrrad Diedrich,bicycle,"Fuhlsbüttler Straße, 132, 22305, Hamburg",53.590374,10.045244,,142
Saigon Café,restaurant,"Fuhlsbüttler Straße, 128, 22305, Hamburg",53.590210,10.045322,,162
Marina,restaurant,"Fuhlsbüttler Straße, 167, 22307, Hamburg",53.593492,10.043976,,32
Soul Sushi Barmbek,restaurant,"Fuhlsbüttler Straße, 174, 22305, Hamburg",53.592599,10.044549,,29
Café NEON,cafe,"Fuhlsbüttler Straße, 163, 22305, Hamburg",53.592505,10.043976,,32
MalinaStories Café,cafe,"Hellbrookstraße, 61, 22305, Hamburg",53.591613,10.045701,,140
MalinaStories Bakery,bakery,"Schwalbenstraße, 57, 22305, Hamburg",53.591776,10.046527,,234
Gräber Räder,bicycle,"Fuhlsbüttler Straße, 269, 22307, Hamburg",53.597811,10.042109,,29
Orchideen Palast,restaurant,"Fuhlsbüttler Straße, 236, 22307, Hamburg",53.596644,10.043578,,36
Kamiros,restaurant,"Fuhlsbüttler Straße, 256, 22307, Hamburg",53.597758,10.042806,,29
Eiscafé Tanduo,cafe,"Fuhlsbüttler Straße, 291, 22307, Hamburg",53.599389,10.040979,,34
Aroma,restaurant,"Fuhlsbüttler Straße, 227, 22307, Hamburg",53.596010,10.043161,,31
Spezzagrano,restaurant,"Fuhlsbüttler Straße, 300, 22307, Hamburg",53.599056,10.041814,,28
Poké Pao,restaurant,"Fuhlsbüttler Straße, 328, 22307, Hamburg",53.600376,10.041386,,30
SUSHIMEN,restaurant,"Fuhlsbüttler Straße, 332, 22307, Hamburg",53.600572,10.041385,,33
Kalivrisi,restaurant,"Fuhlsbüttler Straße, 466, 22309, Hamburg",53.606243,10.039631,,31
REWE,supermarket,"Fuhlsbüttler Straße, 387, 22309, Hamburg",53.601767,10.040567,,35
Aldi,supermarket,"Fuhlsbüttler Straße, 334, 22307, Hamburg",53.600858,10.041388,,39
Café May,cafe,"Fuhlsbüttler Straße, 402, 22309, Hamburg",53.602574,10.041061,,33
Denns BioMarkt,supermarket,"Fuhlsbüttler Straße, 397, 22309, Hamburg",53.602472,10.040019,,81
Gasthaus Q21,restaurant,"Fuhlsbüttler Straße, 405, 22309, Hamburg",53.603561,10.039524,,104
Pastelaria Carlos,cafe,"Fuhlsbüttler Straße, 412, 22309, Hamburg",53.602941,10.040958,,31
Tunici,restaurant,"Fuhlsbüttler Straße, 388, 22309, Hamburg",53.601984,10.041141,,31
Dat Backhus,bakery,Adresse unbekannt,53.601686,10.040608,,32
que huong Asia Laden,supermarket,"Fuhlsbüttler Straße, 417, 22309, Hamburg",53.605922,10.039165,,30
Simply Food,restaurant,"Fuhlsbüttler Straße, 397, 22309, Hamburg",53.602441,10.039735,,113
Pizza Jungs,restaurant,"Fuhlsbüttler Straße, 414, 22309",53.603194,10.040891,,31
Orientalische Bäckerei,bakery,"Fuhlsbüttler Straße, 468, 22309, Hamburg",53.606429,10.039535,,30
Hohenstein Räder,bicycle,"Fuhlsbüttler Straße, 468, 22309, Hamburg",53.606323,10.039597,,32
Dàm,restaurant,"Fuhlsbüttler Straße, 397, 22309, Hamburg",53.602425,10.039502,,138
Al Granada,restaurant,"Fuhlsbüttler Straße, 464, 22309, Hamburg",53.606050,10.039702,,29
Kebab Kitchen,restaurant,"Fuhlsbüttler Straße, 386, 22309, Hamburg",53.601862,10.041152,,30
Wüstenrose,restaurant,"Elligersweg, 1, 22307, Hamburg",53.605796,10.039977,,41
La Tropicana,restaurant,"Fuhlsbüttler Straße, 460",53.605004,10.040258,,29
Café Gourmet,cafe,"Elligersweg, 5, 22307, Hamburg",53.605533,10.040310,,59
Sushi für Hamburg,restaurant,Adresse unbekannt,53.605959,10.039779,,32
Restaurant Athen,restaurant,"Fuhlsbüttler Straße, 527, 22337, Hamburg",53.608912,10.037961,,41
Rio The Grillbar,restaurant,"Fuhlsbüttler Straße, 666, 22337, Hamburg",53.615022,10.035647,,33
Le Crobag,bakery,Adresse unbekannt,53.620671,10.031350,,238
Ditsch,bakery,"Fuhlsbüttler Straße, 761, 22337, Hamburg",53.620702,10.031812,,188
Cafe Restaurant Harmonie,cafe,Adresse unbekannt,53.620003,10.033001,,84
Ribling,restaurant,"Fuhlsbüttler Straße, 755-757, 22337, Hamburg",53.620554,10.033219,,47
Café Fritz,restaurant,"Fuhlsbüttler Straße, 758, 22337, Hamburg",53.623132,10.033122,,21
Café Schwesterherz,cafe,"Alsterdorfer Straße, 572",53.619757,10.033235,,65
Backwerk,bakery,Adresse unbekannt,53.620955,10.031532,,208
Café & au Lait,cafe,Adresse unbekannt,53.621021,10.032654,,88
Zur Ratsmühle,restaurant,"Ratsmühlendamm, 2, 22335, Hamburg",53.626432,10.029522,,243
Kobe Nord,restaurant,"Wellingsbütteler Landstraße, 43, 22337, Hamburg",53.627364,10.033047,,32
Café im Herrenhaus,cafe,"Wellingsbüttler Weg, 71, 22391, Hamburg",53.642959,10.071570,,82
The Locks,restaurant,"Marienhof, 6, 22399, Hamburg",53.657300,10.087087,,101
MAZZA,restaurant,"Poppenbütteler Weg, 236, 22399, Hamburg",53.658154,10.085477,,298
"Cafe Reinhardt - Bäckerei, Konditorei",bakery,"Poppenbüttler Hauptstraße, 37, 22399, Hamburg",53.665109,10.089726,,269
Cafe Reinhardt - Cafe,cafe,"Poppenbüttler Hauptstraße, 37, 22399, Hamburg",53.665013,10.089660,,268
Kleinhuis,restaurant,"Mellingburgredder, 1, 22395, Hamburg",53.670181,10.098094,,184
Zum Bäcker,restaurant,"Herrenhausallee, 9, 22397, Hamburg",53.709980,10.131968,,188
Wohldorfer Mühle,restaurant,"Mühlenredder, 38",53.709937,10.130157,,24
Bäckerei Hinze,bakery,Adresse unbekannt,53.709963,10.131698,,177
Waldesruh / Wilhelm,restaurant,Adresse unbekannt,53.748366,10.173942,,19
Lieblings,restaurant,"Waldweg, 6",53.762916,10.185118,,261
Café Vogelsand,bakery,"Mittelweg, 5, 23863, Bargfeld-Stegen",53.767255,10.186405,,12
Frischemarkt Märkl,supermarket,"Kayhuder Straße, 2, 23863, Bargfeld-Stegen",53.766629,10.186654,,47
Landbäckerei Matthiessen,bakery,"Am Markt, 2, 23867, Sülfeld",53.800177,10.231930,,9
Eiscafe Jella,cafe,Adresse unbekannt,53.799824,10.230505,,98
Kühl´s Restaurant,restaurant,Adresse unbekannt,53.803223,10.274518,,15
Drinking_water,drinking_water,Adresse unbekannt,53.836940,10.298594,,152
Zum Keglertreff,restaurant,Adresse unbekannt,53.920954,10.321540,,26
Park-Cafe,cafe,"Rosenstraße, 33-35, 23795, Bad Segeberg",53.925849,10.318640,,114
Florian Ritzki,restaurant,"Lübecker Landstraße, 18, 23795, Bad Segeberg",53.931538,10.325421,,257
Bäckerei Schmidt,bakery,Adresse unbekannt,54.015660,10.572470,,77
Ihr Fahrradprofi,bicycle,"Dieksbarg, 4, 23623, Ahrensbök",54.020068,10.576671,,158
Backbord,restaurant,"Strandallee, 49, 23683, Scharbeutz",54.046887,10.749850,,38
Brumund's Fischleckereien,restaurant,"Strandallee, 51, 23683, Scharbeutz",54.046490,10.749737,,39
Café Strandkorb,cafe,"Strandallee, 61, 23683, Scharbeutz",54.045116,10.749355,,40
Haus am Meer,cafe,Adresse unbekannt,54.040541,10.749589,,39
Bäckerei Schacht,bakery,"Strandallee, 25, 23683, Scharbeutz",54.049141,10.750758,,30
Café-Häuschen,cafe,"Strandallee, 17, 23683, Scharbeutz",54.050283,10.751403,,31
Janny's Eis,cafe,Adresse unbekannt,54.051716,10.752177,,20
Seßelberg,bakery,"Strandallee, 5, 23683, Scharbeutz",54.051617,10.752133,,19
Strand Café,cafe,"Strandallee, 6, 23683, Scharbeutz",54.051446,10.752044,,17
Sai Gon,restaurant,"Strandallee, 22, 23683, Scharbeutz",54.049707,10.750979,,40
Corfu,restaurant,Adresse unbekannt,54.051838,10.752252,,21
Vista Mare,restaurant,"23683, Scharbeutz",54.051157,10.751822,,34
Ostsee-Panorama,restaurant,Adresse unbekannt,54.049602,10.750914,,40
Kafferösterei,cafe,Adresse unbekannt,54.051350,10.751938,,22
Ocean's,restaurant,Adresse unbekannt,54.052115,10.752822,,22
Fischbrötchen .....Bistro..... Räucherfisch,restaurant,"Strandallee, 5, 23683, Scharbeutz",54.051779,10.752248,,18
Buhne 15,restaurant,Adresse unbekannt,54.050506,10.751272,,56
Weltumsegler,restaurant,Adresse unbekannt,54.075192,10.777714,,110
Cafeteria,cafe,Adresse unbekannt,54.074510,10.777375,,109
Drinking_water,drinking_water,Adresse unbekannt,54.074450,10.777385,,111
Birdie's,restaurant,"Gutshof, 9, 23730, Sierksdorf",54.081928,10.773615,,290
Wintershagen Gutshofcafé,cafe,"Gutshof, 9, 23730, Sierksdorf",54.081872,10.773619,,290
Rewe,supermarket,"Sierksdorfer Straße, 8, 23730, Neustadt in Holstein",54.097155,10.790180,,103
Ambrosia,restaurant,Adresse unbekannt,54.105989,10.809832,,49
Gemütlich Essen & Trinken,restaurant,Adresse unbekannt,54.106515,10.809506,,16
Eiscafe Vicino,cafe,"Untere Querstraße, 3, 23730, Neustadt in Holstein",54.107094,10.810495,,49
Nahkauf,supermarket,"Am Markt, 10, 23730, Neustadt in Holstein",54.107557,10.813344,,279
Mien Backstuuv,bakery,"Brückstraße, 2, 23730, Neustadt in Holstein",54.107225,10.813606,,239
KaffeeWestseite,cafe,"Bahnhofstraße, 16, 23730, Neustadt in Holstein",54.103997,10.807853,,238
Ristorante Vicino,restaurant,"Untere Querstraße, 3, 23730, Neustadt in Holstein",54.107129,10.810465,,54
Pizzeria La Piccola,restaurant,"Waschgrabenstraße, 5, 23730, Neustadt in Holstein",54.106826,10.814935,,172
Golden Leaf,cafe,"Hochtorstraße, 7, 23730, Neustadt in Holstein",54.107284,10.815744,,197
Brocks Café & Bar,cafe,"Am Markt, 6, 23730, Neustadt in Holstein",54.107377,10.815022,,231
Bäckerei Seßelberg,bakery,"Am Markt, 7, 23730, Neustadt in Holstein",54.107299,10.814965,,223
Pizzeria Rana,restaurant,Adresse unbekannt,54.105615,10.814824,,39
Jinder's Pizza Service,restaurant,Adresse unbekannt,54.109913,10.816661,,211
bei Marco,restaurant,"Dr.-Julius-Stinde-Straße, 2a, 23738, Lensahn",54.214178,10.880865,,190
EDEKA Jens,supermarket,"Eutiner Straße, 11, 23738, Lensahn",54.219781,10.884745,,144
Mien Backstuuv,bakery,"Eutiner Straße, 11, 23738, Lensahn",54.219856,10.884859,,158
LaRia,restaurant,"Lübecker Straße, 28, 23738, Lensahn",54.214549,10.882301,,50
Zweirad Hartje,bicycle,"Schuhstraße, 99, 23758, Oldenburg in Holstein",54.286875,10.880748,,20
Netto,supermarket,"Holsteiner Straße, 2, 23758, Oldenburg in Holstein",54.290794,10.887601,,35
REWE,supermarket,"Kieler Chaussee, 4a, 23758, Oldenburg in Holstein",54.287593,10.877718,,245
Landbäckerei - Unser Norden Landbäcker,bakery,"Kieler Chaussee, 4a, 23758, Oldenburg in Holstein",54.287582,10.877509,,260
Akropolis,restaurant,"Markt, 4, 23758, Oldenburg in Holstein",54.291395,10.886295,,139
Landbäckerei Puck,bakery,"Holsteiner Straße, 2, 23758, Oldenburg in Holstein",54.290928,10.887737,,47
Grillmaster,restaurant,Adresse unbekannt,54.289288,10.883958,,81
Edeka,supermarket,"Göhler Straße, 7, 23758, Oldenburg in Holstein",54.291090,10.891642,,91
Modrücker's Restaurant,restaurant,"Kuhtorstraße, 3, 23758, Oldenburg in Holstein",54.291794,10.888487,,128
Insel-Bäckerei,bakery,"Markt, 28, 23758, Oldenburg in Holstein",54.291592,10.887383,,123
Mephisto,restaurant,"Markt, 9, 23758, Oldenburg in Holstein",54.291946,10.886259,,198
Stadtcafe,cafe,"Markt, 8, 23758, Oldenburg in Holstein",54.291876,10.886287,,189
Bio-Markt,supermarket,"Schauenburger Straße, 5, 23758, Oldenburg in Holstein",54.290725,10.889722,,28
von Allwörden,bakery,"Göhler Straße, 7, 23758, Oldenburg in Holstein",54.291089,10.891330,,87
Keglerheim,restaurant,"Meiereiweg, 12, 23758, Oldenburg in Holstein",54.288170,10.892944,,213
Pola Pola,restaurant,"Lankenstraße, 1a, 23758, Oldenburg in Holstein",54.289528,10.890382,,97
Insel-Bäckerei,cafe,"Markt, 28, 23758, Oldenburg in Holstein",54.291558,10.887288,,121
Aldi,supermarket,"Göhler Straße, 5, 23758, Oldenburg in Holstein",54.291008,10.890423,,66
La Trattoria,restaurant,"Kuhtorstraße, 1, 23758, Oldenburg in Holstein",54.291864,10.887716,,147
Cafe Leselampe,cafe,Adresse unbekannt,54.291785,10.889546,,141
Edeka Jens,supermarket,"Strandstraße, 1b, 23775, Großenbrode",54.368345,11.084198,,71
Restaurant,restaurant,Adresse unbekannt,54.367554,11.085119,,196
Puck,bakery,Adresse unbekannt,54.370272,11.084157,,22
Restaurant Großenbrode,restaurant,Adresse unbekannt,54.373082,11.086214,,157
Café MeerZeit,cafe,"Fehmarnsund, 13, 23769, Fehmarn",54.403859,11.121483,,18
Ornithologischer Beobachtungsstand Totholzbiotop,viewpoint,N/A,54.016348,10.528885,,1922
Ornithologischer Beoabachtungsstand,viewpoint,N/A,54.007030,10.540942,,548
Landebahn Einflugschneise,viewpoint,N/A,53.639761,10.007708,,2954
,viewpoint,N/A,54.294610,10.886186,,481
Blick Bad Oldesloe,viewpoint,N/A,53.818744,10.254382,,2241
,viewpoint,N/A,54.031826,10.711237,,437
Vogelbeobachtung,viewpoint,N/A,53.799557,10.259454,,282
,viewpoint,N/A,53.724122,10.178986,,2286
,viewpoint,N/A,53.719634,10.164954,,2095
,viewpoint,N/A,53.721003,10.169485,,2118
,viewpoint,N/A,53.721640,10.170982,,2098
,viewpoint,N/A,53.722189,10.179933,,2522
,viewpoint,N/A,53.668653,10.098487,,30
,viewpoint,N/A,54.033154,10.753548,,335
Aussichtsturm,viewpoint,N/A,54.208523,10.886982,,693
,viewpoint,N/A,53.668332,10.112335,,370
,viewpoint,N/A,53.872656,10.298610,,115
,viewpoint,N/A,53.935713,10.316844,71.980000,582
Spechserholz,viewpoint,N/A,54.020009,10.595322,,730
Wallanlage,viewpoint,N/A,54.018396,10.619591,,1917
,viewpoint,N/A,53.729394,10.170469,,1287
,viewpoint,N/A,53.616909,10.021815,,1370
Flörkendorfer Teich,viewpoint,N/A,53.999358,10.579599,,2050
,viewpoint,N/A,53.950396,10.339369,,1161
,viewpoint,N/A,53.599344,10.026973,,1567
,viewpoint,N/A,53.619976,10.027273,,689
,viewpoint,N/A,53.567808,10.015255,,1052
,viewpoint,N/A,54.051353,10.718139,,1800
Kattenberg,viewpoint,N/A,54.024540,10.501302,,2806
,viewpoint,N/A,53.534384,10.022865,,2006
Himmelsberg,viewpoint,N/A,53.537943,10.016164,,1928
,viewpoint,N/A,53.535607,10.023911,,1852
,viewpoint,N/A,53.538450,10.013271,,2084
,viewpoint,N/A,53.567062,10.002204,,2457
,viewpoint,N/A,53.567538,10.002372,,2445
,viewpoint,N/A,53.546042,10.002104,,2732
,viewpoint,N/A,53.802898,10.255266,,555
Landschaftsturm,viewpoint,N/A,53.626862,10.057219,,1177
Landschaftsturm,viewpoint,N/A,53.627202,10.051234,,938
,viewpoint,N/A,54.294688,10.884782,,496
